,시도,시구군,읍면동,지번,아파트명,전체주소,전용면적,층,건축년도,거래년도,거래월,거래금액,위도,경도
0,강원도,강릉시,견소동 ,202,송정한신아파트,강원도 강릉시 견소동 202 송정한신아파트,84.95,8,1997,2017,11,153318563.77893364,37.7744,128.9382
1,강원도,강릉시,견소동 ,289,송정해변신도브래뉴아파트,강원도 강릉시 견소동 289 송정해변신도브래뉴아파트,59.99,12,2005,2017,11,162746467.0762943,37.7748,128.9397
2,강원도,강릉시,교동 ,1759,현대하이빌아파트,강원도 강릉시 교동 1759 현대하이빌아파트,122.74,1,1999,2017,11,250488352.028234,37.7653,128.8834
3,강원도,강릉시,교동 ,1766,교동주공3단지아파트,강원도 강릉시 교동 1766 교동주공3단지아파트,59.74,11,2002,2017,11,172718359.36894882,37.7631,128.8786
4,강원도,강릉시,교동 ,1766,교동주공3단지아파트,강원도 강릉시 교동 1766 교동주공3단지아파트,59.86,10,2002,2017,11,172802383.07723534,37.7631,128.8786
5,강원도,강릉시,교동 ,1766,교동주공3단지아파트,강원도 강릉시 교동 1766 교동주공3단지아파트,59.86,9,2002,2017,11,172526430.14877117,37.7631,128.8786
6,강원도,강릉시,교동 ,1767,교동2차현대아파트,강원도 강릉시 교동 1767 교동2차현대아파트,84.97,9,1999,2017,11,213663740.8087517,37.763000000000005,128.8805
7,강원도,강릉시,교동 ,1775,부영아파트,강원도 강릉시 교동 1775 부영아파트,59.99,2,2003,2017,11,152528991.69455802,37.7615,128.8764
8,강원도,강릉시,교동 ,1780,부영3차아파트,강원도 강릉시 교동 1780 부영3차아파트,84.93,11,2001,2017,11,202224531.84041512,37.7604,128.8747
9,강원도,강릉시,교동 ,1780,부영3차아파트,강원도 강릉시 교동 1780 부영3차아파트,84.93,6,2001,2017,11,198614340.8760966,37.7604,128.8747
10,강원도,강릉시,교동 ,1780,부영3차아파트,강원도 강릉시 교동 1780 부영3차아파트,84.93,10,2001,2017,11,201888699.44467127,37.7604,128.8747
11,강원도,강릉시,교동 ,18-16,교동대림아파트,강원도 강릉시 교동 18-16 교동대림아파트,84.98,9,1997,2017,11,152080588.2331053,37.7718,128.898
12,강원도,강릉시,교동 ,348-6,제2차서일아파트,강원도 강릉시 교동 348-6 제2차서일아파트,27.75,1,1987,2017,11,43629651.23090029,37.7716,128.8971
13,강원도,강릉시,교동 ,357,교동 이편한세상아파트,강원도 강릉시 교동 357 교동 이편한세상아파트,84.72,20,2006,2017,11,250766907.46093714,37.7707,128.8954
14,강원도,강릉시,교동 ,357,교동 이편한세상아파트,강원도 강릉시 교동 357 교동 이편한세상아파트,123.76,4,2006,2017,11,289773415.95278466,37.7707,128.8954
15,강원도,강릉시,교동 ,357,교동 이편한세상아파트,강원도 강릉시 교동 357 교동 이편한세상아파트,123.76,12,2006,2017,11,304533813.98614156,37.7707,128.8954
16,강원도,강릉시,교동 ,707-53,삼정아파트,강원도 강릉시 교동 707-53 삼정아파트,84.82,1,1990,2017,11,87633813.49318647,37.7664,128.8904
17,강원도,강릉시,교동 ,853-14,현대그린아파트,강원도 강릉시 교동 853-14 현대그린아파트,84.86,3,1992,2017,11,91666047.53988743,37.7611,128.8883
18,강원도,강릉시,내곡동 ,136,삼익타워맨션아파트,강원도 강릉시 내곡동 136 삼익타워맨션아파트,84.86,10,1993,2017,11,129495006.69777429,37.742,128.8907
19,강원도,강릉시,내곡동 ,136,삼익타워맨션아파트,강원도 강릉시 내곡동 136 삼익타워맨션아파트,129.41,10,1993,2017,11,148408505.7814232,37.742,128.8907
20,강원도,강릉시,내곡동 ,476,한라아파트,강원도 강릉시 내곡동 476 한라아파트,59.97,14,1997,2017,11,125179617.27390301,37.7442,128.881
21,강원도,강릉시,내곡동 ,476,한라아파트,강원도 강릉시 내곡동 476 한라아파트,59.97,17,1997,2017,11,124667164.506446,37.7442,128.881
22,강원도,강릉시,내곡동 ,476,한라아파트,강원도 강릉시 내곡동 476 한라아파트,84.95,11,1997,2017,11,163549787.9645766,37.7442,128.881
23,강원도,강릉시,내곡동 ,616,제2차강부임대주택,강원도 강릉시 내곡동 616 제2차강부임대주택,24.8,4,1988,2017,11,42626265.56297064,37.7408,128.8774
24,강원도,강릉시,내곡동 ,623,내곡주공아파트,강원도 강릉시 내곡동 623 내곡주공아파트,39.3,3,1989,2017,11,60938156.0616765,37.7412,128.879
25,강원도,강릉시,내곡동 ,623,내곡주공아파트,강원도 강릉시 내곡동 623 내곡주공아파트,39.69,5,1989,2017,11,61729900.54454851,37.7412,128.879
26,강원도,강릉시,내곡동 ,75-1,관동2차아파트,강원도 강릉시 내곡동 75-1 관동2차아파트,49.94,3,1992,2017,11,61432588.127512455,37.7456,128.8898
27,강원도,강릉시,노암동 ,390,노암한라1차아파트,강원도 강릉시 노암동 390 노암한라1차아파트,136.42,12,1994,2017,11,156895293.9744655,37.7447,128.9019
28,강원도,강릉시,노암동 ,711,신화아파트,강원도 강릉시 노암동 711 신화아파트,84.95,10,1998,2017,11,157913973.91100395,37.7483,128.8979
29,강원도,강릉시,노암동 ,711,신화아파트,강원도 강릉시 노암동 711 신화아파트,84.95,8,1998,2017,11,157187036.8866316,37.7483,128.8979
30,강원도,강릉시,노암동 ,835,노암2주공아파트,강원도 강릉시 노암동 835 노암2주공아파트,59.3,2,1984,2017,11,63921602.76985884,37.7452,128.9054
31,강원도,강릉시,노암동 ,844,양우내안애아파트,강원도 강릉시 노암동 844 양우내안애아파트,59.69,12,2009,2017,11,159750700.39006197,37.7517,128.9035
32,강원도,강릉시,노암동 ,844,양우내안애아파트,강원도 강릉시 노암동 844 양우내안애아파트,84.44,6,2009,2017,11,203263113.2799574,37.7517,128.9035
33,강원도,강릉시,송정동 ,1061,경포대신도브래뉴로얄카운티아파트,강원도 강릉시 송정동 1061 경포대신도브래뉴로얄카운티아파트,155.84,2,2007,2017,11,336514173.3867272,37.7785,128.9341
34,강원도,강릉시,송정동 ,39-10,삼익비치맨션,강원도 강릉시 송정동 39-10 삼익비치맨션,84.54,2,1992,2017,11,118685443.3768543,37.7788,128.9331
35,강원도,강릉시,송정동 ,940,삼우은성맨션아파트,강원도 강릉시 송정동 940 삼우은성맨션아파트,72.86,4,1992,2017,11,121780688.41839445,37.7703,128.9212
36,강원도,강릉시,송정동 ,940,삼우은성맨션아파트,강원도 강릉시 송정동 940 삼우은성맨션아파트,72.86,1,1992,2017,11,112856810.73190749,37.7703,128.9212
37,강원도,강릉시,송정동 ,940,삼우은성맨션아파트,강원도 강릉시 송정동 940 삼우은성맨션아파트,84.96,12,1992,2017,11,150481936.2174536,37.7703,128.9212
38,강원도,강릉시,송정동 ,940-23,대림맨션아파트,강원도 강릉시 송정동 940-23 대림맨션아파트,84.99,8,1991,2017,11,146564095.71842158,37.7695,128.9206
39,강원도,강릉시,송정동 ,940-23,대림맨션아파트,강원도 강릉시 송정동 940-23 대림맨션아파트,135.38,6,1991,2017,11,167221228.90260875,37.7695,128.9206
40,강원도,강릉시,입암동 ,210,이안강릉타운아파트,강원도 강릉시 입암동 210 이안강릉타운아파트,122.72,9,2006,2017,11,251467629.904796,37.7558,128.9205
41,강원도,강릉시,입암동 ,210,이안강릉타운아파트,강원도 강릉시 입암동 210 이안강릉타운아파트,122.72,8,2006,2017,11,250150033.76709664,37.7558,128.9205
42,강원도,강릉시,입암동 ,321,금호어울림아파트,강원도 강릉시 입암동 321 금호어울림아파트,123.65,4,2007,2017,11,272358441.72590184,37.7536,128.9189
43,강원도,강릉시,입암동 ,321,금호어울림아파트,강원도 강릉시 입암동 321 금호어울림아파트,123.09,11,2007,2017,11,283946343.35239565,37.7536,128.9189
44,강원도,강릉시,입암동 ,321,금호어울림아파트,강원도 강릉시 입암동 321 금호어울림아파트,157.22,5,2007,2017,11,302189621.05026925,37.7536,128.9189
45,강원도,강릉시,입암동 ,440,입암현대아파트,강원도 강릉시 입암동 440 입암현대아파트,59.96,10,1998,2017,11,129839557.84721506,37.7529,128.9117
46,강원도,강릉시,입암동 ,440,입암현대아파트,강원도 강릉시 입암동 440 입암현대아파트,59.96,14,1998,2017,11,129507224.61683452,37.7529,128.9117
47,강원도,강릉시,입암동 ,440,입암현대아파트,강원도 강릉시 입암동 440 입암현대아파트,84.9,14,1998,2017,11,169878538.81907475,37.7529,128.9117
48,강원도,강릉시,입암동 ,49,입암2단지주공아파트,강원도 강릉시 입암동 49 입암2단지주공아파트,39.69,4,1990,2017,11,57131851.458600044,37.7639,128.9154
49,강원도,강릉시,입암동 ,49,입암2단지주공아파트,강원도 강릉시 입암동 49 입암2단지주공아파트,39.69,5,1990,2017,11,57288351.62947416,37.7639,128.9154
50,강원도,강릉시,입암동 ,506-5,태평양아파트,강원도 강릉시 입암동 506-5 태평양아파트,34.72,12,1998,2017,11,56304269.69046545,37.7564,128.9128
51,강원도,강릉시,입암동 ,506-5,태평양아파트,강원도 강릉시 입암동 506-5 태평양아파트,39.35,6,1998,2017,11,64924930.118365765,37.7564,128.9128
52,강원도,강릉시,입암동 ,506-9,대인3차아파트,강원도 강릉시 입암동 506-9 대인3차아파트,59.69,14,1993,2017,11,88333967.3226738,37.7565,128.9121
53,강원도,강릉시,입암동 ,506-9,대인3차아파트,강원도 강릉시 입암동 506-9 대인3차아파트,59.69,4,1993,2017,11,87772409.60128498,37.7565,128.9121
54,강원도,강릉시,입암동 ,641,입암1주공아파트,강원도 강릉시 입암동 641 입암1주공아파트,39.72,2,1986,2017,11,57781092.43205118,37.7548,128.9078
55,강원도,강릉시,입암동 ,641,입암1주공아파트,강원도 강릉시 입암동 641 입암1주공아파트,39.72,4,1986,2017,11,57667865.272836685,37.7548,128.9078
56,강원도,강릉시,입암동 ,685,입암4주공아파트,강원도 강릉시 입암동 685 입암4주공아파트,59.8,6,1996,2017,11,116099691.39206803,37.760999999999996,128.9155
57,강원도,강릉시,입암동 ,685,입암4주공아파트,강원도 강릉시 입암동 685 입암4주공아파트,39.99,3,1996,2017,11,74649343.94070005,37.760999999999996,128.9155
58,강원도,강릉시,입암동 ,709-1,입암6주공아파트,강원도 강릉시 입암동 709-1 입암6주공아파트,49.62,8,1998,2017,11,101053491.7377348,37.7587,128.9188
59,강원도,강릉시,입암동 ,709-1,입암6주공아파트,강원도 강릉시 입암동 709-1 입암6주공아파트,49.62,11,1998,2017,11,101205763.75046158,37.7587,128.9188
60,강원도,강릉시,입암동 ,709-1,입암6주공아파트,강원도 강릉시 입암동 709-1 입암6주공아파트,59.99,6,1998,2017,11,124799986.99169505,37.7587,128.9188
61,강원도,강릉시,저동 ,4-4,경포현대아파트,강원도 강릉시 저동 4-4 경포현대아파트,59.79,5,1996,2017,11,123200722.62210476,37.8021,128.8996
62,강원도,강릉시,저동 ,4-4,경포현대아파트,강원도 강릉시 저동 4-4 경포현대아파트,59.79,1,1996,2017,11,113391847.69581354,37.8021,128.8996
63,강원도,강릉시,지변동 ,334,덕원아파트,강원도 강릉시 지변동 334 덕원아파트,59.96,4,1998,2017,11,82910435.96780872,37.7781,128.8731
64,강원도,강릉시,지변동 ,334,덕원아파트,강원도 강릉시 지변동 334 덕원아파트,33.47,3,1998,2017,11,49213910.914786816,37.7781,128.8731
65,강원도,강릉시,지변동 ,334,덕원아파트,강원도 강릉시 지변동 334 덕원아파트,33.47,8,1998,2017,11,49930948.21715212,37.7781,128.8731
66,강원도,강릉시,초당동 ,128,초당현대아파트,강원도 강릉시 초당동 128 초당현대아파트,124.28,9,1995,2017,11,182666719.77453506,37.7838,128.9181
67,강원도,강릉시,초당동 ,128,초당현대아파트,강원도 강릉시 초당동 128 초당현대아파트,84.48,6,1995,2017,11,138899582.2260462,37.7838,128.9181
68,강원도,강릉시,초당동 ,128,초당현대아파트,강원도 강릉시 초당동 128 초당현대아파트,59.88,2,1995,2017,11,99843888.59106064,37.7838,128.9181
69,강원도,강릉시,초당동 ,135-1,이화해변아파트,강원도 강릉시 초당동 135-1 이화해변아파트,29.82,1,1988,2017,11,39371196.14346123,37.7839,128.9162
70,강원도,강릉시,초당동 ,143,초당우성아파트,강원도 강릉시 초당동 143 초당우성아파트,59.91,3,1997,2017,11,130256381.34126389,37.783,128.914
71,강원도,강릉시,초당동 ,143,초당우성아파트,강원도 강릉시 초당동 143 초당우성아파트,59.91,1,1997,2017,11,123494083.89825141,37.783,128.914
72,강원도,강릉시,초당동 ,143,초당우성아파트,강원도 강릉시 초당동 143 초당우성아파트,59.91,17,1997,2017,11,135049231.87895906,37.783,128.914
73,강원도,강릉시,초당동 ,149-1,초당동부아파트,강원도 강릉시 초당동 149-1 초당동부아파트,59.84,7,1997,2017,11,135535440.90619123,37.784,128.9139
74,강원도,강릉시,초당동 ,181,초당유화2차아파트,강원도 강릉시 초당동 181 초당유화2차아파트,78.17,6,1994,2017,11,123020107.36993515,37.7855,128.9142
75,강원도,강릉시,초당동 ,182-2,초당유화1차아파트,강원도 강릉시 초당동 182-2 초당유화1차아파트,49.82,1,1993,2017,11,79749931.49224281,37.7861,128.9136
76,강원도,강릉시,초당동 ,554,초당동청마루아파트,강원도 강릉시 초당동 554 초당동청마루아파트,116.63,3,2007,2017,11,260089281.7628826,37.7829,128.9153
77,강원도,강릉시,포남동 ,1065,포남1주공아파트,강원도 강릉시 포남동 1065 포남1주공아파트,41.98,4,1981,2017,11,63369988.5100441,37.7752,128.9091
78,강원도,강릉시,포남동 ,1065,포남1주공아파트,강원도 강릉시 포남동 1065 포남1주공아파트,41.98,2,1981,2017,11,63963680.23335266,37.7752,128.9091
79,강원도,강릉시,포남동 ,1065,포남1주공아파트,강원도 강릉시 포남동 1065 포남1주공아파트,42.55,4,1982,2017,11,64287032.27263403,37.7752,128.9091
80,강원도,강릉시,포남동 ,1108,강릉5차아파트,강원도 강릉시 포남동 1108 강릉5차아파트,59.8,2,1988,2017,11,81930436.38839054,37.7677,128.9042
81,강원도,강릉시,포남동 ,1110-9,,강원도 강릉시 포남동 1110-9 ,23.76,3,1986,2017,11,26864829.21844864,37.7669,128.9039
82,강원도,강릉시,포남동 ,1200,포남동2주공아파트,강원도 강릉시 포남동 1200 포남동2주공아파트,39.3,4,1989,2017,11,67003900.89955473,37.781,128.9158
83,강원도,강릉시,포남동 ,1241-6,미진2차맨션아파트,강원도 강릉시 포남동 1241-6 미진2차맨션아파트,82.5,6,1990,2017,11,127687469.08978856,37.7704,128.9103
84,강원도,강릉시,포남동 ,1293-1,일송아파트,강원도 강릉시 포남동 1293-1 일송아파트,58.87,13,1995,2017,11,119859821.59220445,37.7717,128.9148
85,강원도,강릉시,포남동 ,1293-1,일송아파트,강원도 강릉시 포남동 1293-1 일송아파트,59.14,3,1995,2017,11,115963413.48102272,37.7717,128.9148
86,강원도,강릉시,포남동 ,1293-1,일송아파트,강원도 강릉시 포남동 1293-1 일송아파트,59.14,2,1995,2017,11,113457704.9039222,37.7717,128.9148
87,강원도,강릉시,포남동 ,1293-2,청송아파트,강원도 강릉시 포남동 1293-2 청송아파트,84.42,2,1994,2017,11,148720747.97067606,37.7712,128.9134
88,강원도,강릉시,포남동 ,1293-2,청송아파트,강원도 강릉시 포남동 1293-2 청송아파트,84.42,11,1994,2017,11,161767560.98605216,37.7712,128.9134
89,강원도,강릉시,포남동 ,436-1,정아새솔아파트,강원도 강릉시 포남동 436-1 정아새솔아파트,59.84,5,1993,2017,11,92764406.38771963,37.7763,128.9126
90,강원도,강릉시,홍제동 ,1037,우미린아파트,강원도 강릉시 홍제동 1037 우미린아파트,84.99,15,2016,2017,11,267793714.90011108,37.756,128.8683
91,강원도,강릉시,홍제동 ,1055,홍제한신휴플러스아파트,강원도 강릉시 홍제동 1055 홍제한신휴플러스아파트,59.96,15,2015,2017,11,194090211.6584481,37.7501,128.8833
92,강원도,강릉시,홍제동 ,122,홍제동우산아파트,강원도 강릉시 홍제동 122 홍제동우산아파트,82.67,2,1997,2017,11,100030802.34088421,37.7511,128.8835
93,강원도,강릉시,연곡면 영진리,12,부영사랑으로아파트,강원도 강릉시 연곡면 영진리 12 부영사랑으로아파트,59.99,1,2005,2017,11,94587179.94489145,37.8696,128.8418
94,강원도,강릉시,연곡면 영진리,305-2,삼우그린아파트,강원도 강릉시 연곡면 영진리 305-2 삼우그린아파트,43.2,14,1999,2017,11,71452593.9439125,37.8678,128.8387
95,강원도,강릉시,연곡면 영진리,305-2,삼우그린아파트,강원도 강릉시 연곡면 영진리 305-2 삼우그린아파트,30.24,12,1999,2017,11,49805940.534547806,37.8678,128.8387
96,강원도,강릉시,연곡면 영진리,305-2,삼우그린아파트,강원도 강릉시 연곡면 영진리 305-2 삼우그린아파트,43.2,2,1999,2017,11,68213270.768538,37.8678,128.8387
97,강원도,강릉시,연곡면 영진리,305-2,삼우그린아파트,강원도 강릉시 연곡면 영진리 305-2 삼우그린아파트,30.24,13,1999,2017,11,49810956.004901886,37.8678,128.8387
98,강원도,강릉시,연곡면 영진리,305-2,삼우그린아파트,강원도 강릉시 연곡면 영진리 305-2 삼우그린아파트,43.2,11,1999,2017,11,71879842.03477287,37.8678,128.8387
99,강원도,강릉시,주문진읍 교항리,1256,주문진교항주공2단지,강원도 강릉시 주문진읍 교항리 1256 주문진교항주공2단지,49.85,9,2000,2017,11,96550765.74822521,37.8747,128.8283
100,강원도,강릉시,주문진읍 교항리,1256,주문진교항주공2단지,강원도 강릉시 주문진읍 교항리 1256 주문진교항주공2단지,49.85,11,2000,2017,11,96447686.16856432,37.8747,128.8283
101,강원도,강릉시,주문진읍 교항리,1256,주문진교항주공2단지,강원도 강릉시 주문진읍 교항리 1256 주문진교항주공2단지,49.85,13,2000,2017,11,96207730.90377522,37.8747,128.8283
102,강원도,고성군,간성읍 신안리,111,하얀어린이집,강원도 고성군 간성읍 신안리 111 하얀어린이집,39.36,6,1998,2017,11,60579491.611937046,38.3793,128.4791
103,강원도,고성군,간성읍 신안리,111,하얀어린이집,강원도 고성군 간성읍 신안리 111 하얀어린이집,39.36,2,1998,2017,11,58246714.703062534,38.3793,128.4791
104,강원도,고성군,거진읍 거진리,492,뉴빌리지아파트,강원도 고성군 거진읍 거진리 492 뉴빌리지아파트,84.98,2,2009,2017,11,164108765.05150998,38.4458,128.4507
105,강원도,고성군,거진읍 송포리,165,성원오션샹떼빌,강원도 고성군 거진읍 송포리 165 성원오션샹떼빌,70.64,5,2006,2017,11,162263217.75976527,38.4349,128.455
106,강원도,고성군,토성면 청간리,217,클레시움아파트,강원도 고성군 토성면 청간리 217 클레시움아파트,59.52,14,2006,2017,11,121010580.44135225,38.2682,128.5547
107,강원도,동해시,구미동 ,551,유성타워,강원도 동해시 구미동 551 유성타워,69.01,8,1997,2017,11,65741431.196183205,37.4804,129.1281
108,강원도,동해시,동회동 ,442,"대동,현대아파트","강원도 동해시 동회동 442 대동,현대아파트",45.0,1,1995,2017,11,68730622.36750364,37.4873,129.1058
109,강원도,동해시,동회동 ,442,"대동,현대아파트","강원도 동해시 동회동 442 대동,현대아파트",73.47,3,1996,2017,11,125646507.99235857,37.4873,129.1058
110,강원도,동해시,동회동 ,442,"대동,현대아파트","강원도 동해시 동회동 442 대동,현대아파트",84.55,3,1996,2017,11,173255641.63062966,37.4873,129.1058
111,강원도,동해시,동회동 ,90,협성1차 아파트,강원도 동해시 동회동 90 협성1차 아파트,59.6,2,1995,2017,11,62741188.49425697,37.4872,129.1088
112,강원도,동해시,발한동 ,599-1,우석아파트,강원도 동해시 발한동 599-1 우석아파트,32.28,2,1985,2017,11,30737238.88718033,37.5395,129.0998
113,강원도,동해시,발한동 ,599-45,경민아파트,강원도 동해시 발한동 599-45 경민아파트,53.14,1,1990,2017,11,34291224.50785065,37.541,129.0999
114,강원도,동해시,발한동 ,599-5,경민아파트,강원도 동해시 발한동 599-5 경민아파트,64.3,2,1991,2017,11,46487740.33994198,37.5402,129.1006
115,강원도,동해시,부곡동 ,31-2,삼화미성아파트,강원도 동해시 부곡동 31-2 삼화미성아파트,58.83,3,1991,2017,11,52407220.065633774,37.5373,129.1091
116,강원도,동해시,부곡동 ,5-82,일정골든타워,강원도 동해시 부곡동 5-82 일정골든타워,30.27,12,1996,2017,11,29358684.372880936,37.5408,129.1092
117,강원도,동해시,부곡동 ,73-1,동해아파트,강원도 동해시 부곡동 73-1 동해아파트,57.43,4,1981,2017,11,31237240.45788622,37.5373,129.1017
118,강원도,동해시,부곡동 ,80,썬샤인파크,강원도 동해시 부곡동 80 썬샤인파크,77.1,6,2005,2017,11,125793225.08007109,37.5384,129.10299999999998
119,강원도,동해시,부곡동 ,9-2,동성아파트,강원도 동해시 부곡동 9-2 동성아파트,58.66,3,1987,2017,11,41024785.055316925,37.5384,129.1088
120,강원도,동해시,북평동 ,151-5,북평주공2차아파트,강원도 동해시 북평동 151-5 북평주공2차아파트,39.3,4,1989,2017,11,34755330.47387123,37.4808,129.1221
121,강원도,동해시,북평동 ,151-5,북평주공2차아파트,강원도 동해시 북평동 151-5 북평주공2차아파트,39.3,5,1989,2017,11,34625103.20293331,37.4808,129.1221
122,강원도,동해시,송정동 ,1064-2,매화아파트,강원도 동해시 송정동 1064-2 매화아파트,54.42,5,1986,2017,11,33329945.463126183,37.4947,129.124
123,강원도,동해시,이도동 ,172,이도동현대아파트,강원도 동해시 이도동 172 이도동현대아파트,59.97,13,1996,2017,11,99345840.72101593,37.4794,129.1116
124,강원도,동해시,이도동 ,302-6,강변아파트,강원도 동해시 이도동 302-6 강변아파트,59.96,3,1996,2017,11,57802466.500478745,37.4811,129.1099
125,강원도,동해시,이도동 ,302-6,강변아파트,강원도 동해시 이도동 302-6 강변아파트,35.93,1,1996,2017,11,28220930.755000114,37.4811,129.1099
126,강원도,동해시,이로동 ,433-31,동해규수방아파트,강원도 동해시 이로동 433-31 동해규수방아파트,41.94,1,2007,2017,11,20938730.238277912,37.4931,129.0554
127,강원도,동해시,이로동 ,433-31,동해규수방아파트,강원도 동해시 이로동 433-31 동해규수방아파트,41.94,4,2007,2017,11,22224819.30785179,37.4931,129.0554
128,강원도,동해시,이로동 ,433-31,동해규수방아파트,강원도 동해시 이로동 433-31 동해규수방아파트,54.42,2,2007,2017,11,34665664.36143637,37.4931,129.0554
129,강원도,동해시,천곡동 ,1004-1,시영3차아파트,강원도 동해시 천곡동 1004-1 시영3차아파트,49.94,2,1994,2017,11,51149007.680120945,37.5161,129.1074
130,강원도,동해시,천곡동 ,1080,동해천곡주공1차아파트,강원도 동해시 천곡동 1080 동해천곡주공1차아파트,44.78,3,1983,2017,11,53563460.940517426,37.5243,129.1076
131,강원도,동해시,천곡동 ,1080,동해천곡주공1차아파트,강원도 동해시 천곡동 1080 동해천곡주공1차아파트,43.97,3,1983,2017,11,52395410.3825326,37.5243,129.1076
132,강원도,동해시,천곡동 ,1102,동해 금호어울림 아파트,강원도 동해시 천곡동 1102 동해 금호어울림 아파트,84.91,6,2007,2017,11,224085436.22900426,37.528,129.1025
133,강원도,동해시,천곡동 ,415,주공4차아파트,강원도 동해시 천곡동 415 주공4차아파트,46.68,2,1989,2017,11,65613245.10504055,37.5211,129.10399999999998
134,강원도,동해시,천곡동 ,415,주공4차아파트,강원도 동해시 천곡동 415 주공4차아파트,39.99,1,1991,2017,11,54988496.03472614,37.5211,129.10399999999998
135,강원도,동해시,천곡동 ,415,주공4차아파트,강원도 동해시 천곡동 415 주공4차아파트,39.69,3,1989,2017,11,55545534.000854015,37.5211,129.10399999999998
136,강원도,동해시,천곡동 ,788,중앙아파트,강원도 동해시 천곡동 788 중앙아파트,60.53,1,1981,2017,11,75601875.07201624,37.5264,129.1061
137,강원도,동해시,천곡동 ,794,한양아파트,강원도 동해시 천곡동 794 한양아파트,49.81,10,1992,2017,11,77454945.56929207,37.5268,129.1085
138,강원도,동해시,천곡동 ,794,한양아파트,강원도 동해시 천곡동 794 한양아파트,39.1,5,1992,2017,11,45258862.62405825,37.5268,129.1085
139,강원도,동해시,천곡동 ,794,한양아파트,강원도 동해시 천곡동 794 한양아파트,39.1,4,1992,2017,11,45208037.24715614,37.5268,129.1085
140,강원도,동해시,평릉동 ,449,동해하나리움아파트,강원도 동해시 평릉동 449 동해하나리움아파트,59.98,8,2010,2017,11,147115928.67607152,37.533,129.1116
141,강원도,동해시,효가동 ,256,명보1차아파트,강원도 동해시 효가동 256 명보1차아파트,46.25,2,1988,2017,11,36814793.40815973,37.4975,129.1084
142,강원도,동해시,효가동 ,362-34,유존양지아파트,강원도 동해시 효가동 362-34 유존양지아파트,52.41,3,1992,2017,11,28284294.80778742,37.5054,129.1077
143,강원도,삼척시,갈천동 ,184-7,유존양지아파트,강원도 삼척시 갈천동 184-7 유존양지아파트,59.46,5,1992,2017,11,42603141.91186142,37.4666,129.16299999999998
144,강원도,삼척시,갈천동 ,184-7,유존양지아파트,강원도 삼척시 갈천동 184-7 유존양지아파트,59.97,5,1992,2017,11,43197329.35026312,37.4666,129.16299999999998
145,강원도,삼척시,건지동 ,176,코아루플러스아파트,강원도 삼척시 건지동 176 코아루플러스아파트,84.92,4,2015,2017,11,194421742.9967662,37.436,129.1462
146,강원도,삼척시,건지동 ,176,코아루플러스아파트,강원도 삼척시 건지동 176 코아루플러스아파트,84.77,10,2015,2017,11,202353344.86535203,37.436,129.1462
147,강원도,삼척시,교동 ,501-5,동부아파트,강원도 삼척시 교동 501-5 동부아파트,59.83,4,1996,2017,11,86597360.71257353,37.455999999999996,129.1656
148,강원도,삼척시,교동 ,757,청솔2차아파트,강원도 삼척시 교동 757 청솔2차아파트,59.85,5,2003,2017,11,87604945.37893915,37.4491,129.1742
149,강원도,삼척시,남양동 ,348,선창아파트,강원도 삼척시 남양동 348 선창아파트,55.77,3,1986,2017,11,57261699.65329027,37.4431,129.1716
150,강원도,삼척시,정상동 ,316-3,유성아파트,강원도 삼척시 정상동 316-3 유성아파트,39.48,9,1999,2017,11,46526027.04095888,37.4426,129.179
151,강원도,삼척시,정상동 ,316-3,유성아파트,강원도 삼척시 정상동 316-3 유성아파트,48.03,7,1999,2017,11,58079804.51523256,37.4426,129.179
152,강원도,삼척시,정상동 ,454,주공아파트,강원도 삼척시 정상동 454 주공아파트,32.43,3,1988,2017,11,33800291.607378006,37.4411,129.17700000000002
153,강원도,삼척시,정상동 ,454,주공아파트,강원도 삼척시 정상동 454 주공아파트,39.63,3,1988,2017,11,40805678.98415089,37.4411,129.17700000000002
154,강원도,삼척시,정상동 ,457-1,청솔1차아파트,강원도 삼척시 정상동 457-1 청솔1차아파트,59.85,7,2002,2017,11,89043277.30152845,37.4472,129.17600000000002
155,강원도,삼척시,정상동 ,457-3,석미한아름아파트,강원도 삼척시 정상동 457-3 석미한아름아파트,56.97,9,1998,2017,11,77015158.8025465,37.4473,129.1776
156,강원도,삼척시,정상동 ,473,현진에버빌,강원도 삼척시 정상동 473 현진에버빌,85.0,5,2005,2017,11,219531505.7863449,37.445,129.1746
157,강원도,삼척시,정상동 ,473,현진에버빌,강원도 삼척시 정상동 473 현진에버빌,85.0,6,2005,2017,11,221833898.2759813,37.445,129.1746
158,강원도,삼척시,정상동 ,475,경림한아름아파트,강원도 삼척시 정상동 475 경림한아름아파트,59.88,5,2003,2017,11,106343274.78651512,37.4435,129.1753
159,강원도,삼척시,근덕면 교가리,378-1,행남아파트,강원도 삼척시 근덕면 교가리 378-1 행남아파트,36.8,2,1995,2017,11,30934096.098577976,37.3809,129.2277
160,강원도,속초시,교동 ,1029,하우스토리,강원도 속초시 교동 1029 하우스토리,59.51,15,2011,2017,11,196500028.5247382,38.1993,128.5731
161,강원도,속초시,교동 ,783,대명늘푸른아파트,강원도 속초시 교동 783 대명늘푸른아파트,39.84,2,2000,2017,11,91467557.38465357,38.2051,128.5706
162,강원도,속초시,교동 ,783,대명늘푸른아파트,강원도 속초시 교동 783 대명늘푸른아파트,59.96,15,2000,2017,11,134851164.53953993,38.2051,128.5706
163,강원도,속초시,교동 ,898,교동2주공아파트,강원도 속초시 교동 898 교동2주공아파트,39.69,4,1990,2017,11,90420811.22593021,38.2073,128.5798
164,강원도,속초시,교동 ,898,교동2주공아파트,강원도 속초시 교동 898 교동2주공아파트,39.3,3,1990,2017,11,89094510.91438961,38.2073,128.5798
165,강원도,속초시,교동 ,923,삼환아파트,강원도 속초시 교동 923 삼환아파트,54.58,9,1994,2017,11,111981946.49180114,38.2035,128.5661
166,강원도,속초시,교동 ,923,삼환아파트,강원도 속초시 교동 923 삼환아파트,96.42,5,1994,2017,11,159320973.72373593,38.2035,128.5661
167,강원도,속초시,교동 ,961,청초대우아파트,강원도 속초시 교동 961 청초대우아파트,59.95,4,1998,2017,11,152622156.9723562,38.1973,128.5735
168,강원도,속초시,금호동 ,622-66,금호대명(서울대명2차)아파트,강원도 속초시 금호동 622-66 금호대명(서울대명2차)아파트,59.4,5,1993,2017,11,115708645.08286226,38.2098,128.5802
169,강원도,속초시,금호동 ,627,속초e편한세상,강원도 속초시 금호동 627 속초e편한세상,84.98,15,2006,2017,11,274055777.4947268,38.2101,128.5823
170,강원도,속초시,동명동 ,512,대명타워영랑호아파트,강원도 속초시 동명동 512 대명타워영랑호아파트,59.93,2,1997,2017,11,109738791.95579445,38.2114,128.5842
171,강원도,속초시,동명동 ,512,대명타워영랑호아파트,강원도 속초시 동명동 512 대명타워영랑호아파트,84.9,4,1997,2017,11,137465303.50333607,38.2114,128.5842
172,강원도,속초시,영랑동 ,157,양우비치타워맨션,강원도 속초시 영랑동 157 양우비치타워맨션,84.5,15,1990,2017,11,124648706.40915453,38.2159,128.5927
173,강원도,속초시,영랑동 ,160-1,송하아파트,강원도 속초시 영랑동 160-1 송하아파트,47.64,5,1988,2017,11,56771524.905313015,38.2165,128.5916
174,강원도,속초시,영랑동 ,160-1,송하아파트,강원도 속초시 영랑동 160-1 송하아파트,39.93,1,1988,2017,11,44859724.49494982,38.2165,128.5916
175,강원도,속초시,조양동 ,1215-1,조양2주공아파트,강원도 속초시 조양동 1215-1 조양2주공아파트,39.74,12,1998,2017,11,97497669.05524874,38.1863,128.5938
176,강원도,속초시,조양동 ,1217-1,,강원도 속초시 조양동 1217-1 ,59.99,12,1998,2017,11,144570300.4541179,38.185,128.5938
177,강원도,속초시,조양동 ,1292-1,동명아파트,강원도 속초시 조양동 1292-1 동명아파트,39.45,2,1989,2017,11,62469040.9081254,38.1859,128.5995
178,강원도,속초시,조양동 ,1294-23,성호아파트,강원도 속초시 조양동 1294-23 성호아파트,49.65,11,2001,2017,11,115049533.54711545,38.1848,128.5989
179,강원도,속초시,조양동 ,1294-23,성호아파트,강원도 속초시 조양동 1294-23 성호아파트,59.76,13,2001,2017,11,131892022.45077693,38.1848,128.5989
180,강원도,속초시,조양동 ,1294-23,성호아파트,강원도 속초시 조양동 1294-23 성호아파트,59.76,17,2001,2017,11,131349345.64249432,38.1848,128.5989
181,강원도,속초시,조양동 ,1463-4,설악한신아파트,강원도 속초시 조양동 1463-4 설악한신아파트,51.45,2,1990,2017,11,115294125.20601094,38.1878,128.60399999999998
182,강원도,속초시,조양동 ,1499,부영아파트3단지,강원도 속초시 조양동 1499 부영아파트3단지,84.88,10,1996,2017,11,205191838.64835918,38.1902,128.578
183,강원도,속초시,조양동 ,1499,부영아파트3단지,강원도 속초시 조양동 1499 부영아파트3단지,166.54,15,1996,2017,11,245594616.17915785,38.1902,128.578
184,강원도,속초시,조양동 ,1499,부영아파트3단지,강원도 속초시 조양동 1499 부영아파트3단지,84.88,14,1996,2017,11,205556407.93964922,38.1902,128.578
185,강원도,속초시,조양동 ,1499,부영아파트3단지,강원도 속초시 조양동 1499 부영아파트3단지,59.91,2,1996,2017,11,138969580.11316812,38.1902,128.578
186,강원도,속초시,조양동 ,1501,,강원도 속초시 조양동 1501 ,40.0,11,1995,2017,11,68126054.07185745,38.1885,128.5815
187,강원도,속초시,조양동 ,1502,부영아파트6단지,강원도 속초시 조양동 1502 부영아파트6단지,50.0,1,1995,2017,11,90580839.721879,38.1874,128.5819
188,강원도,속초시,조양동 ,1505,부영아파트,강원도 속초시 조양동 1505 부영아파트,50.0,14,1995,2017,11,104393408.62737668,38.1887,128.5843
189,강원도,속초시,조양동 ,1540-1,부영아파트,강원도 속초시 조양동 1540-1 부영아파트,49.92,2,1998,2017,11,98250776.92056751,38.1878,128.5858
190,강원도,속초시,조양동 ,1540-1,부영아파트,강원도 속초시 조양동 1540-1 부영아파트,49.92,5,1998,2017,11,104358825.20970261,38.1878,128.5858
191,강원도,속초시,조양동 ,1563,속초조양코아루아파트,강원도 속초시 조양동 1563 속초조양코아루아파트,84.98,12,2006,2017,11,227536356.84986937,38.1878,128.5716
192,강원도,속초시,조양동 ,1563,속초조양코아루아파트,강원도 속초시 조양동 1563 속초조양코아루아파트,84.98,6,2006,2017,11,222617332.24111545,38.1878,128.5716
193,강원도,속초시,청학동 ,632-30,금강아파트,강원도 속초시 청학동 632-30 금강아파트,71.87,2,1983,2017,11,53785074.746860504,38.204,128.5829
194,강원도,양구군,양구읍 상리,510,경림아파트,강원도 양구군 양구읍 상리 510 경림아파트,37.76,8,1998,2017,11,59439434.37685871,38.1079,127.9846
195,강원도,양구군,양구읍 정림리,177,보배아파트,강원도 양구군 양구읍 정림리 177 보배아파트,84.69,2,1992,2017,11,77865018.59016085,38.1004,127.9832
196,강원도,원주시,개운동 ,28-1,원주힐스테이트아파트,강원도 원주시 개운동 28-1 원주힐스테이트아파트,157.78,13,2006,2017,11,290565685.31046116,37.3406,127.9623
197,강원도,원주시,개운동 ,322,개운현대아파트,강원도 원주시 개운동 322 개운현대아파트,35.1,9,1998,2017,11,75895834.12224579,37.3368,127.9519
198,강원도,원주시,개운동 ,328-1,원흥3차아파트,강원도 원주시 개운동 328-1 원흥3차아파트,59.9,2,1993,2017,11,97523417.08038044,37.3349,127.9538
199,강원도,원주시,개운동 ,441,개운1차한신휴플러스아파트,강원도 원주시 개운동 441 개운1차한신휴플러스아파트,84.98,8,2006,2017,11,232493340.11288738,37.3322,127.9503
200,강원도,원주시,개운동 ,441,개운1차한신휴플러스아파트,강원도 원주시 개운동 441 개운1차한신휴플러스아파트,84.98,16,2006,2017,11,234587233.3763653,37.3322,127.9503
201,강원도,원주시,관설동 ,1713-1,청솔6차아파트,강원도 원주시 관설동 1713-1 청솔6차아파트,59.85,2,2002,2017,11,115176115.85413325,37.3175,127.9655
202,강원도,원주시,관설동 ,1713-1,청솔6차아파트,강원도 원주시 관설동 1713-1 청솔6차아파트,59.85,7,2002,2017,11,121484833.98692644,37.3175,127.9655
203,강원도,원주시,관설동 ,1713-2,원주단관8차청솔아파트,강원도 원주시 관설동 1713-2 원주단관8차청솔아파트,59.85,11,2002,2017,11,127233583.60259998,37.3168,127.9663
204,강원도,원주시,관설동 ,1713-2,원주단관8차청솔아파트,강원도 원주시 관설동 1713-2 원주단관8차청솔아파트,59.85,8,2002,2017,11,127444349.99631679,37.3168,127.9663
205,강원도,원주시,관설동 ,1774-4,단관코아루아파트,강원도 원주시 관설동 1774-4 단관코아루아파트,84.96,2,2005,2017,11,177442028.49144018,37.314,127.9622
206,강원도,원주시,단계동 ,1095-1,봉화산이-편한세상,강원도 원주시 단계동 1095-1 봉화산이-편한세상,84.98,8,2006,2017,11,261484180.29539979,37.3511,127.927
207,강원도,원주시,단계동 ,111-4,동보렉스3차아파트,강원도 원주시 단계동 111-4 동보렉스3차아파트,59.99,5,1990,2017,11,92788521.46901512,37.3565,127.93299999999999
208,강원도,원주시,단계동 ,111-47,동보렉스아파트4차,강원도 원주시 단계동 111-47 동보렉스아파트4차,73.0,5,1991,2017,11,126465706.34347689,37.3572,127.9322
209,강원도,원주시,단계동 ,1165,단계이안아파트,강원도 원주시 단계동 1165 단계이안아파트,84.93,4,2007,2017,11,203387377.38992202,37.3618,127.935
210,강원도,원주시,단계동 ,1166,이안1단지,강원도 원주시 단계동 1166 이안1단지,84.93,15,2007,2017,11,214127423.95895755,37.3604,127.9345
211,강원도,원주시,단계동 ,507,현대아파트,강원도 원주시 단계동 507 현대아파트,75.93,19,1992,2017,11,133399229.61160076,37.357,127.9294
212,강원도,원주시,단계동 ,792,단계아파트,강원도 원주시 단계동 792 단계아파트,54.12,5,1984,2017,11,124418694.60593951,37.3444,127.9348
213,강원도,원주시,단계동 ,792,단계아파트,강원도 원주시 단계동 792 단계아파트,54.12,2,1984,2017,11,121625748.29207814,37.3444,127.9348
214,강원도,원주시,단계동 ,807,단계롯데아파트,강원도 원주시 단계동 807 단계롯데아파트,84.91,11,1993,2017,11,159304906.72277606,37.353,127.929
215,강원도,원주시,단계동 ,807,단계롯데아파트,강원도 원주시 단계동 807 단계롯데아파트,76.54,3,1993,2017,11,141128856.7394451,37.353,127.929
216,강원도,원주시,단계동 ,807,단계롯데아파트,강원도 원주시 단계동 807 단계롯데아파트,84.91,12,1993,2017,11,159075317.73537576,37.353,127.929
217,강원도,원주시,단계동 ,808-1,라이프타운,강원도 원주시 단계동 808-1 라이프타운,134.76,6,1993,2017,11,184594074.63650286,37.3513,127.9309
218,강원도,원주시,단계동 ,880,코오롱아파트,강원도 원주시 단계동 880 코오롱아파트,59.73,15,1994,2017,11,145326032.69345915,37.3431,127.9283
219,강원도,원주시,단계동 ,880,코오롱아파트,강원도 원주시 단계동 880 코오롱아파트,59.73,14,1994,2017,11,145593908.38187635,37.3431,127.9283
220,강원도,원주시,단구동 ,1026-26,동보 노빌리티타워 골드,강원도 원주시 단구동 1026-26 동보 노빌리티타워 골드,144.2,24,2009,2017,11,337173809.7972785,37.3285,127.9522
221,강원도,원주시,단구동 ,1026-26,동보 노빌리티타워 골드,강원도 원주시 단구동 1026-26 동보 노빌리티타워 골드,146.98,11,2009,2017,11,331685748.0011717,37.3285,127.9522
222,강원도,원주시,단구동 ,1461,한신휴플러스2차아파트,강원도 원주시 단구동 1461 한신휴플러스2차아파트,84.98,5,2006,2017,11,230626768.66925144,37.3297,127.9531
223,강원도,원주시,단구동 ,1467,대흥아파트,강원도 원주시 단구동 1467 대흥아파트,84.98,8,1994,2017,11,144206256.03763235,37.323,127.9646
224,강원도,원주시,단구동 ,1478-4,유승아파트,강원도 원주시 단구동 1478-4 유승아파트,84.47,14,2003,2017,11,187219629.6272968,37.3203,127.9674
225,강원도,원주시,단구동 ,1478-4,유승아파트,강원도 원주시 단구동 1478-4 유승아파트,84.47,17,2003,2017,11,187307677.37575114,37.3203,127.9674
226,강원도,원주시,단구동 ,1517-2,한일아파트,강원도 원주시 단구동 1517-2 한일아파트,59.91,15,1997,2017,11,159899750.25468338,37.329,127.9486
227,강원도,원주시,단구동 ,1517-2,한일아파트,강원도 원주시 단구동 1517-2 한일아파트,59.91,5,1997,2017,11,158923322.7399069,37.329,127.9486
228,강원도,원주시,단구동 ,1517-3,원주구곡청솔7차아파트,강원도 원주시 단구동 1517-3 원주구곡청솔7차아파트,59.85,15,2002,2017,11,127355019.22056258,37.3278,127.9472
229,강원도,원주시,단구동 ,1517-3,원주구곡청솔7차아파트,강원도 원주시 단구동 1517-3 원주구곡청솔7차아파트,59.85,8,2002,2017,11,128528143.56832421,37.3278,127.9472
230,강원도,원주시,단구동 ,1517-4,현대아파트,강원도 원주시 단구동 1517-4 현대아파트,59.84,3,1997,2017,11,152836160.09403408,37.3287,127.9463
231,강원도,원주시,단구동 ,1588-1,현진에버빌2차아파트,강원도 원주시 단구동 1588-1 현진에버빌2차아파트,59.76,1,2002,2017,11,155860051.32187402,37.3234,127.9514
232,강원도,원주시,단구동 ,1588-4,구곡청솔2차아파트,강원도 원주시 단구동 1588-4 구곡청솔2차아파트,58.65,5,2000,2017,11,116239541.36775506,37.3221,127.9535
233,강원도,원주시,단구동 ,1589-1,현대2차아파트,강원도 원주시 단구동 1589-1 현대2차아파트,84.99,10,1998,2017,11,188523272.84310997,37.3215,127.9506
234,강원도,원주시,단구동 ,1589-3,세경웰러스아파트,강원도 원주시 단구동 1589-3 세경웰러스아파트,84.74,2,2005,2017,11,147565921.34179342,37.3207,127.9515
235,강원도,원주시,단구동 ,1589-4,성일아파트,강원도 원주시 단구동 1589-4 성일아파트,59.55,2,1998,2017,11,137894942.69052804,37.3203,127.9526
236,강원도,원주시,단구동 ,1612,단구동현진에버빌(1),강원도 원주시 단구동 1612 단구동현진에버빌(1),74.76,14,2001,2017,11,187482854.34175193,37.3245,127.9559
237,강원도,원주시,단구동 ,1684-1,청솔4차아파트,강원도 원주시 단구동 1684-1 청솔4차아파트,58.65,5,2001,2017,11,117928457.26992452,37.32,127.9539
238,강원도,원주시,단구동 ,1684-1,청솔4차아파트,강원도 원주시 단구동 1684-1 청솔4차아파트,58.65,13,2001,2017,11,118298945.98262084,37.32,127.9539
239,강원도,원주시,단구동 ,1684-1,청솔4차아파트,강원도 원주시 단구동 1684-1 청솔4차아파트,58.65,8,2001,2017,11,119076314.7277919,37.32,127.9539
240,강원도,원주시,단구동 ,1684-1,청솔4차아파트,강원도 원주시 단구동 1684-1 청솔4차아파트,58.65,1,2001,2017,11,109655409.76115787,37.32,127.9539
241,강원도,원주시,단구동 ,1684-1,청솔4차아파트,강원도 원주시 단구동 1684-1 청솔4차아파트,58.65,4,2001,2017,11,116808680.61409771,37.32,127.9539
242,강원도,원주시,단구동 ,1702,중앙하이츠아파트,강원도 원주시 단구동 1702 중앙하이츠아파트,106.51,4,2008,2017,11,225647011.67166054,37.314,127.9587
243,강원도,원주시,단구동 ,186-11,선아아파트,강원도 원주시 단구동 186-11 선아아파트,74.38,1,1980,2017,11,75028828.42435122,37.3303,127.96
244,강원도,원주시,단구동 ,186-2,원흥아파트,강원도 원주시 단구동 186-2 원흥아파트,59.82,7,1995,2017,11,111454636.85140574,37.3294,127.9602
245,강원도,원주시,단구동 ,587-1,해청아파트,강원도 원주시 단구동 587-1 해청아파트,84.6,10,1991,2017,11,133014365.1612035,37.3292,127.9569
246,강원도,원주시,명륜동 ,124,대성현대아파트,강원도 원주시 명륜동 124 대성현대아파트,84.92,10,1991,2017,11,142080644.29812157,37.3395,127.9502
247,강원도,원주시,명륜동 ,205-151,동현맨션,강원도 원주시 명륜동 205-151 동현맨션,71.46,5,1989,2017,11,98531526.62155056,37.3404,127.9467
248,강원도,원주시,명륜동 ,205-37,현대아파트,강원도 원주시 명륜동 205-37 현대아파트,84.97,4,1990,2017,11,141745613.79444015,37.3404,127.9457
249,강원도,원주시,명륜동 ,710,행운아파트,강원도 원주시 명륜동 710 행운아파트,38.64,10,1992,2017,11,74814183.7890234,37.3329,127.9404
250,강원도,원주시,명륜동 ,765,한솔솔파크,강원도 원주시 명륜동 765 한솔솔파크,84.92,5,2006,2017,11,209955281.61714685,37.3339,127.9392
251,강원도,원주시,명륜동 ,774,영진아파트,강원도 원주시 명륜동 774 영진아파트,84.51,10,1997,2017,11,127814022.237095,37.3362,127.9391
252,강원도,원주시,명륜동 ,802,성원아파트,강원도 원주시 명륜동 802 성원아파트,84.93,6,2000,2017,11,172267870.9881338,37.3413,127.9418
253,강원도,원주시,명륜동 ,802,성원아파트,강원도 원주시 명륜동 802 성원아파트,75.06,9,2000,2017,11,159314573.1670922,37.3413,127.9418
254,강원도,원주시,명륜동 ,847-4,동보노빌리티2아파트,강원도 원주시 명륜동 847-4 동보노빌리티2아파트,118.75,3,2002,2017,11,206751168.79324067,37.3238,127.9393
255,강원도,원주시,명륜동 ,847-5,동보노빌리티-1,강원도 원주시 명륜동 847-5 동보노빌리티-1,84.78,1,2001,2017,11,171436119.38127458,37.3246,127.9383
256,강원도,원주시,무실동 ,1640,요진보네르카운티,강원도 원주시 무실동 1640 요진보네르카운티,117.38,3,2004,2017,11,256536149.06376958,37.3375,127.9244
257,강원도,원주시,무실동 ,1644,무실주공4단지아파트,강원도 원주시 무실동 1644 무실주공4단지아파트,75.66,17,2001,2017,11,196874482.9581796,37.3359,127.9263
258,강원도,원주시,무실동 ,1644,무실주공4단지아파트,강원도 원주시 무실동 1644 무실주공4단지아파트,75.95,3,2001,2017,11,189732628.13223755,37.3359,127.9263
259,강원도,원주시,무실동 ,1644,무실주공4단지아파트,강원도 원주시 무실동 1644 무실주공4단지아파트,84.52,6,2001,2017,11,210172550.62649715,37.3359,127.9263
260,강원도,원주시,무실동 ,1645,무실주공3단지아파트,강원도 원주시 무실동 1645 무실주공3단지아파트,59.92,18,2003,2017,11,192218843.4422933,37.334,127.9269
261,강원도,원주시,무실동 ,1645,무실주공3단지아파트,강원도 원주시 무실동 1645 무실주공3단지아파트,59.83,14,2003,2017,11,192158905.6555909,37.334,127.9269
262,강원도,원주시,무실동 ,1645,무실주공3단지아파트,강원도 원주시 무실동 1645 무실주공3단지아파트,59.92,19,2003,2017,11,192165816.50718343,37.334,127.9269
263,강원도,원주시,무실동 ,1714,무실이-편한세상,강원도 원주시 무실동 1714 무실이-편한세상,101.44,10,2009,2017,11,326121521.03899014,37.3378,127.9189
264,강원도,원주시,무실동 ,1715-1,원주무실6단지휴먼시아,강원도 원주시 무실동 1715-1 원주무실6단지휴먼시아,84.81,4,2010,2017,11,250103757.30516684,37.3364,127.9202
265,강원도,원주시,무실동 ,1715-1,원주무실6단지휴먼시아,강원도 원주시 무실동 1715-1 원주무실6단지휴먼시아,84.9,11,2010,2017,11,258240643.54173362,37.3364,127.9202
266,강원도,원주시,무실동 ,1861-1,원주시무실세영리첼1차아파트,강원도 원주시 무실동 1861-1 원주시무실세영리첼1차아파트,118.4,3,2014,2017,11,333990648.22598517,37.3298,127.9273
267,강원도,원주시,무실동 ,1861-1,원주시무실세영리첼1차아파트,강원도 원주시 무실동 1861-1 원주시무실세영리첼1차아파트,118.4,7,2014,2017,11,344633111.82095134,37.3298,127.9273
268,강원도,원주시,무실동 ,1868-6,무실우미린,강원도 원주시 무실동 1868-6 무실우미린,75.3,16,2014,2017,11,294682759.53736675,37.327,127.9323
269,강원도,원주시,반곡동 ,1800,반곡벽산블루밍1차아파트,강원도 원주시 반곡동 1800 반곡벽산블루밍1차아파트,123.52,13,2007,2017,11,276781576.28325176,37.3389,127.965
270,강원도,원주시,반곡동 ,1800,반곡벽산블루밍1차아파트,강원도 원주시 반곡동 1800 반곡벽산블루밍1차아파트,123.52,2,2007,2017,11,256992170.49981534,37.3389,127.965
271,강원도,원주시,반곡동 ,1802,반곡벽산블루밍2차아파트,강원도 원주시 반곡동 1802 반곡벽산블루밍2차아파트,84.94,6,2008,2017,11,219174109.78404963,37.3391,127.9667
272,강원도,원주시,반곡동 ,1802,반곡벽산블루밍2차아파트,강원도 원주시 반곡동 1802 반곡벽산블루밍2차아파트,84.97,1,2008,2017,11,201654080.40706122,37.3391,127.9667
273,강원도,원주시,반곡동 ,1802,반곡벽산블루밍2차아파트,강원도 원주시 반곡동 1802 반곡벽산블루밍2차아파트,84.97,7,2008,2017,11,220300593.17348945,37.3391,127.9667
274,강원도,원주시,반곡동 ,1805,원주반곡아이파크,강원도 원주시 반곡동 1805 원주반곡아이파크,84.98,12,2008,2017,11,254158036.09365666,37.3348,127.9641
275,강원도,원주시,반곡동 ,1816-3,푸른숨엘에이치11단지,강원도 원주시 반곡동 1816-3 푸른숨엘에이치11단지,84.97,2,2014,2017,11,246625958.7203548,37.3365,127.9754
276,강원도,원주시,반곡동 ,1816-3,푸른숨엘에이치11단지,강원도 원주시 반곡동 1816-3 푸른숨엘에이치11단지,84.97,1,2014,2017,11,240057274.47085106,37.3365,127.9754
277,강원도,원주시,반곡동 ,1894-2,힐데스하임아파트,강원도 원주시 반곡동 1894-2 힐데스하임아파트,84.96,2,2015,2017,11,289551306.43134844,37.323,127.9847
278,강원도,원주시,반곡동 ,2042-4,푸른숨휴브레스,강원도 원주시 반곡동 2042-4 푸른숨휴브레스,84.92,14,2013,2017,11,259682737.06708848,37.3209,127.9842
279,강원도,원주시,반곡동 ,2042-4,푸른숨휴브레스,강원도 원주시 반곡동 2042-4 푸른숨휴브레스,84.92,1,2013,2017,11,236075158.6780517,37.3209,127.9842
280,강원도,원주시,봉산동 ,1201,삼익아파트 유치원,강원도 원주시 봉산동 1201 삼익아파트 유치원,59.99,5,1995,2017,11,140134598.0611714,37.3412,127.9662
281,강원도,원주시,봉산동 ,1203-1,아포리배말타운,강원도 원주시 봉산동 1203-1 아포리배말타운,114.38,10,2004,2017,11,209920085.8455342,37.3494,127.956
282,강원도,원주시,봉산동 ,1203-1,아포리배말타운,강원도 원주시 봉산동 1203-1 아포리배말타운,84.52,5,2004,2017,11,172740739.44741833,37.3494,127.956
283,강원도,원주시,봉산동 ,1203-1,아포리배말타운,강원도 원주시 봉산동 1203-1 아포리배말타운,84.52,14,2004,2017,11,176040962.67997015,37.3494,127.956
284,강원도,원주시,우산동 ,130-1,삼호1차아파트,강원도 원주시 우산동 130-1 삼호1차아파트,72.36,6,1990,2017,11,114596872.76780403,37.3624,127.9376
285,강원도,원주시,우산동 ,157,덕원아파트,강원도 원주시 우산동 157 덕원아파트,57.84,6,1992,2017,11,92925222.19587517,37.3628,127.9361
286,강원도,원주시,우산동 ,157,덕원아파트,강원도 원주시 우산동 157 덕원아파트,72.36,4,1992,2017,11,109843067.08362114,37.3628,127.9361
287,강원도,원주시,우산동 ,333-9,동보렉스아파트(1차),강원도 원주시 우산동 333-9 동보렉스아파트(1차),69.59,4,1988,2017,11,87848020.73284388,37.3729,127.9394
288,강원도,원주시,우산동 ,333-9,동보렉스아파트(1차),강원도 원주시 우산동 333-9 동보렉스아파트(1차),43.96,3,1988,2017,11,68224293.13943243,37.3729,127.9394
289,강원도,원주시,우산동 ,818,한라비발디,강원도 원주시 우산동 818 한라비발디,156.0,12,2009,2017,11,325696153.74951255,37.3634,127.9328
290,강원도,원주시,우산동 ,821,신일유토빌,강원도 원주시 우산동 821 신일유토빌,84.79,15,2012,2017,11,195267476.68522298,37.3732,127.9407
291,강원도,원주시,우산동 ,821,신일유토빌,강원도 원주시 우산동 821 신일유토빌,59.73,21,2012,2017,11,165210987.5610975,37.3732,127.9407
292,강원도,원주시,우산동 ,823,한라비발디2차아파트,강원도 원주시 우산동 823 한라비발디2차아파트,84.22,11,2014,2017,11,246677505.80011308,37.3634,127.9307
293,강원도,원주시,우산동 ,823,한라비발디2차아파트,강원도 원주시 우산동 823 한라비발디2차아파트,59.12,1,2014,2017,11,182268062.7806641,37.3634,127.9307
294,강원도,원주시,일산동 ,272-3,신진빌리지(1차),강원도 원주시 일산동 272-3 신진빌리지(1차),84.79,2,1989,2017,11,103041229.07200325,37.3478,127.9391
295,강원도,원주시,태장동 ,1037-2,진우아파트,강원도 원주시 태장동 1037-2 진우아파트,76.68,2,1990,2017,11,86633897.83090878,37.3787,127.9503
296,강원도,원주시,태장동 ,1037-2,진우아파트,강원도 원주시 태장동 1037-2 진우아파트,63.0,5,1990,2017,11,80534619.32496548,37.3787,127.9503
297,강원도,원주시,태장동 ,1037-2,진우아파트,강원도 원주시 태장동 1037-2 진우아파트,63.0,4,1990,2017,11,79953378.79840803,37.3787,127.9503
298,강원도,원주시,태장동 ,1040-8,대흥아파트,강원도 원주시 태장동 1040-8 대흥아파트,59.94,8,1995,2017,11,97422057.92368984,37.3797,127.9509
299,강원도,원주시,태장동 ,1040-8,대흥아파트,강원도 원주시 태장동 1040-8 대흥아파트,59.94,5,1995,2017,11,96928034.09381294,37.3797,127.9509
300,강원도,원주시,태장동 ,1040-8,대흥아파트,강원도 원주시 태장동 1040-8 대흥아파트,59.94,10,1995,2017,11,96908263.80951023,37.3797,127.9509
301,강원도,원주시,태장동 ,128-9,성호2차샤인힐즈,강원도 원주시 태장동 128-9 성호2차샤인힐즈,75.41,9,2004,2017,11,161577804.1643709,37.3635,127.96
302,강원도,원주시,태장동 ,1720-48,뉴스테이아파트,강원도 원주시 태장동 1720-48 뉴스테이아파트,60.0,4,2014,2017,11,78882575.87781191,37.4072,127.9459
303,강원도,원주시,태장동 ,1836,백운3차임대아파트,강원도 원주시 태장동 1836 백운3차임대아파트,40.83,8,2000,2017,11,67688891.67913437,37.4018,127.9522
304,강원도,원주시,태장동 ,2252,백운2차아파트,강원도 원주시 태장동 2252 백운2차아파트,36.18,2,1996,2017,11,42426988.09553003,37.3949,127.9549
305,강원도,원주시,태장동 ,2708,태장주공3단지아파트,강원도 원주시 태장동 2708 태장주공3단지아파트,59.67,4,1997,2017,11,130551565.0993706,37.3846,127.9546
306,강원도,원주시,태장동 ,2708,태장주공3단지아파트,강원도 원주시 태장동 2708 태장주공3단지아파트,59.67,2,1997,2017,11,125751030.97773182,37.3846,127.9546
307,강원도,원주시,태장동 ,2708,태장주공3단지아파트,강원도 원주시 태장동 2708 태장주공3단지아파트,39.44,14,1997,2017,11,86074906.16411972,37.3846,127.9546
308,강원도,원주시,태장동 ,2716,흥화브라운빌아파트,강원도 원주시 태장동 2716 흥화브라운빌아파트,84.97,14,2006,2017,11,186456519.98098123,37.3619,127.9563
309,강원도,원주시,태장동 ,546,두진백로아파트,강원도 원주시 태장동 546 두진백로아파트,28.14,12,1999,2017,11,52489537.93080568,37.3822,127.9557
310,강원도,원주시,태장동 ,546,두진백로아파트,강원도 원주시 태장동 546 두진백로아파트,58.74,7,1999,2017,11,104096577.34557807,37.3822,127.9557
311,강원도,원주시,태장동 ,546,두진백로아파트,강원도 원주시 태장동 546 두진백로아파트,58.74,4,1999,2017,11,102358279.47221887,37.3822,127.9557
312,강원도,원주시,태장동 ,546,두진백로아파트,강원도 원주시 태장동 546 두진백로아파트,28.14,2,1999,2017,11,52033596.68396616,37.3822,127.9557
313,강원도,원주시,태장동 ,546,두진백로아파트,강원도 원주시 태장동 546 두진백로아파트,28.14,3,1999,2017,11,52406024.517467976,37.3822,127.9557
314,강원도,원주시,태장동 ,546,두진백로아파트,강원도 원주시 태장동 546 두진백로아파트,28.14,7,1999,2017,11,52684616.399810314,37.3822,127.9557
315,강원도,원주시,태장동 ,549,상록아파트,강원도 원주시 태장동 549 상록아파트,51.07,1,1989,2017,11,45200134.96537733,37.382,127.9575
316,강원도,원주시,태장동 ,551,삼정백조아파트,강원도 원주시 태장동 551 삼정백조아파트,49.77,7,1997,2017,11,84390816.19418049,37.3812,127.9579
317,강원도,원주시,태장동 ,580,금광포란재아파트1단지,강원도 원주시 태장동 580 금광포란재아파트1단지,59.98,1,2006,2017,11,123899024.80992067,37.3746,127.9562
318,강원도,원주시,태장동 ,580,금광포란재아파트1단지,강원도 원주시 태장동 580 금광포란재아파트1단지,84.96,6,2006,2017,11,164356855.87576878,37.3746,127.9562
319,강원도,원주시,태장동 ,580,금광포란재아파트1단지,강원도 원주시 태장동 580 금광포란재아파트1단지,59.98,8,2006,2017,11,135440511.46585572,37.3746,127.9562
320,강원도,원주시,태장동 ,682,현대아파트,강원도 원주시 태장동 682 현대아파트,84.48,8,1996,2017,11,140181297.33891594,37.3626,127.9582
321,강원도,원주시,태장동 ,682,현대아파트,강원도 원주시 태장동 682 현대아파트,84.48,5,1995,2017,11,138343302.41241372,37.3626,127.9582
322,강원도,원주시,태장동 ,891-1,영진2차아파트,강원도 원주시 태장동 891-1 영진2차아파트,59.94,7,1993,2017,11,86014399.76304579,37.3683,127.9501
323,강원도,원주시,학성동 ,1032-9,삼천리2차아파트,강원도 원주시 학성동 1032-9 삼천리2차아파트,76.73,10,1993,2017,11,113168003.17155135,37.3529,127.9377
324,강원도,원주시,행구동 ,1658-4,현대아파트,강원도 원주시 행구동 1658-4 현대아파트,59.54,3,1997,2017,11,127361653.05489719,37.3405,127.9796
325,강원도,원주시,행구동 ,1658-4,현대아파트,강원도 원주시 행구동 1658-4 현대아파트,84.97,3,1997,2017,11,152806388.02873456,37.3405,127.9796
326,강원도,원주시,행구동 ,1850,건영아파트,강원도 원주시 행구동 1850 건영아파트,84.5,13,1996,2017,11,146770750.5928365,37.3437,127.9876
327,강원도,원주시,행구동 ,1850,건영아파트,강원도 원주시 행구동 1850 건영아파트,59.79,18,1996,2017,11,119166476.5553199,37.3437,127.9876
328,강원도,원주시,행구동 ,1851,효성백년가약,강원도 원주시 행구동 1851 효성백년가약,128.7,7,2009,2017,11,277637661.66924167,37.3446,127.9733
329,강원도,원주시,행구동 ,1851,효성백년가약,강원도 원주시 행구동 1851 효성백년가약,108.23,2,2009,2017,11,239062738.77531946,37.3446,127.9733
330,강원도,원주시,문막읍 건등리,1697-2,신한아파트,강원도 원주시 문막읍 건등리 1697-2 신한아파트,59.95,10,1997,2017,11,98199601.62712908,37.3141,127.8194
331,강원도,원주시,문막읍 건등리,1741-1,원주문막극동스타클래스,강원도 원주시 문막읍 건등리 1741-1 원주문막극동스타클래스,84.95,14,2008,2017,11,182793593.67866647,37.3156,127.8221
332,강원도,원주시,문막읍 동화리,1264-3,문막동보렉스6차아파트,강원도 원주시 문막읍 동화리 1264-3 문막동보렉스6차아파트,59.7,14,1993,2017,11,74627240.87948847,37.3217,127.8332
333,강원도,원주시,문막읍 동화리,1530-2,문막이화임대아파트,강원도 원주시 문막읍 동화리 1530-2 문막이화임대아파트,42.65,3,1994,2017,11,47553556.94989538,37.3289,127.82799999999999
334,강원도,원주시,문막읍 동화리,1543,문막현진아파트,강원도 원주시 문막읍 동화리 1543 문막현진아파트,59.58,11,1997,2017,11,90366865.75991249,37.3258,127.8284
335,강원도,원주시,문막읍 동화리,1690,원주문막신원아침도시,강원도 원주시 문막읍 동화리 1690 원주문막신원아침도시,84.88,10,2008,2017,11,177725344.247023,37.3223,127.8325
336,강원도,원주시,판부면 서곡리,592,거장2차아파트,강원도 원주시 판부면 서곡리 592 거장2차아파트,39.06,10,2002,2017,11,87796524.68258047,37.312,127.9279
337,강원도,원주시,판부면 서곡리,592,거장2차아파트,강원도 원주시 판부면 서곡리 592 거장2차아파트,39.06,8,2002,2017,11,88038550.2868762,37.312,127.9279
338,강원도,원주시,호저면 만종리,659-6,만종 대보아파트,강원도 원주시 호저면 만종리 659-6 만종 대보아파트,75.79,3,1995,2017,11,49230648.58910799,37.3529,127.9001
339,강원도,원주시,흥업면 매지리,1928,현대아파트,강원도 원주시 흥업면 매지리 1928 현대아파트,59.89,4,1995,2017,11,103462193.24506533,37.2796,127.912
340,강원도,원주시,흥업면 매지리,1928,현대아파트,강원도 원주시 흥업면 매지리 1928 현대아파트,51.55,7,1995,2017,11,90456590.19177008,37.2796,127.912
341,강원도,원주시,흥업면 매지리,1928,현대아파트,강원도 원주시 흥업면 매지리 1928 현대아파트,51.55,11,1995,2017,11,89717653.94617271,37.2796,127.912
342,강원도,원주시,흥업면 매지리,1928,현대아파트,강원도 원주시 흥업면 매지리 1928 현대아파트,59.89,6,1995,2017,11,105098417.5488056,37.2796,127.912
343,강원도,원주시,흥업면 사제리,337,거장아파트,강원도 원주시 흥업면 사제리 337 거장아파트,32.67,1,1999,2017,11,39588494.31252289,37.3327,127.8878
344,강원도,원주시,흥업면 흥업리,1827,남원주 두산위브,강원도 원주시 흥업면 흥업리 1827 남원주 두산위브,84.86,10,2009,2017,11,214297702.0934497,37.2912,127.9179
345,강원도,원주시,흥업면 흥업리,1827,남원주 두산위브,강원도 원주시 흥업면 흥업리 1827 남원주 두산위브,84.86,7,2009,2017,11,212768873.00665176,37.2912,127.9179
346,강원도,원주시,흥업면 흥업리,86,흥업경동아파트,강원도 원주시 흥업면 흥업리 86 흥업경동아파트,39.7,5,2000,2017,11,74258837.08615446,37.3021,127.9237
347,강원도,원주시,흥업면 흥업리,86,흥업경동아파트,강원도 원주시 흥업면 흥업리 86 흥업경동아파트,39.7,6,2000,2017,11,74578485.84209299,37.3021,127.9237
348,강원도,철원군,갈말읍 지포리,138,명품ESA아파트,강원도 철원군 갈말읍 지포리 138 명품ESA아파트,128.84,13,2008,2017,11,224615880.53837097,38.1434,127.305
349,강원도,철원군,동송읍 이평리,588-3,한국개나리아파트,강원도 철원군 동송읍 이평리 588-3 한국개나리아파트,59.91,12,1995,2017,11,66172295.09125233,38.202,127.2238
350,강원도,철원군,철원읍 화지리,71-2,산호화지리그린빌아파트,강원도 철원군 철원읍 화지리 71-2 산호화지리그린빌아파트,59.85,2,2003,2017,11,89213074.30078316,38.2141,127.2101
351,강원도,춘천시,근화동 ,279-8,신성근화미소지움아파트,강원도 춘천시 근화동 279-8 신성근화미소지움아파트,59.92,15,2007,2017,11,198661113.05311954,37.8721,127.7179
352,강원도,춘천시,근화동 ,279-8,신성근화미소지움아파트,강원도 춘천시 근화동 279-8 신성근화미소지움아파트,59.92,14,2007,2017,11,198713935.87024987,37.8721,127.7179
353,강원도,춘천시,근화동 ,742-1,청와아파트,강원도 춘천시 근화동 742-1 청와아파트,39.7,10,1991,2017,11,86182359.70048475,37.8803,127.7136
354,강원도,춘천시,사농동 ,158,현대아파트,강원도 춘천시 사농동 158 현대아파트,68.37,11,2002,2017,11,168275877.34311092,37.9117,127.7238
355,강원도,춘천시,사농동 ,158,현대아파트,강원도 춘천시 사농동 158 현대아파트,80.93,11,2002,2017,11,181456941.66959274,37.9117,127.7238
356,강원도,춘천시,석사동 ,682,봄내아파트,강원도 춘천시 석사동 682 봄내아파트,49.86,1,1991,2017,11,94525098.91940403,37.8572,127.745
357,강원도,춘천시,석사동 ,694-1,석사근로복지아파트,강원도 춘천시 석사동 694-1 석사근로복지아파트,46.99,3,1991,2017,11,103518661.02611578,37.861999999999995,127.7383
358,강원도,춘천시,석사동 ,722-2,그랜드아파트,강원도 춘천시 석사동 722-2 그랜드아파트,84.95,10,1998,2017,11,209329135.13509357,37.8665,127.7572
359,강원도,춘천시,석사동 ,727-2,석사3지구 부영아파트,강원도 춘천시 석사동 727-2 석사3지구 부영아파트,49.92,11,1998,2017,11,124479259.32643616,37.8695,127.7552
360,강원도,춘천시,석사동 ,727-4,두산아파트,강원도 춘천시 석사동 727-4 두산아파트,59.97,12,1997,2017,11,170351523.91720474,37.8681,127.7552
361,강원도,춘천시,석사동 ,727-5,진흥아파트,강원도 춘천시 석사동 727-5 진흥아파트,59.15,12,1997,2017,11,165087641.98204076,37.8682,127.7537
362,강원도,춘천시,석사동 ,727-5,진흥아파트,강원도 춘천시 석사동 727-5 진흥아파트,59.15,14,1997,2017,11,164611332.67681563,37.8682,127.7537
363,강원도,춘천시,석사동 ,813,현대아파트,강원도 춘천시 석사동 813 현대아파트,99.93,5,1998,2017,11,240779648.00039542,37.8555,127.7408
364,강원도,춘천시,석사동 ,813,현대아파트,강원도 춘천시 석사동 813 현대아파트,99.92,8,1998,2017,11,244516100.51490676,37.8555,127.7408
365,강원도,춘천시,석사동 ,820,퇴계(3)주공아파트,강원도 춘천시 석사동 820 퇴계(3)주공아파트,84.79,4,1999,2017,11,208179863.43122518,37.855,127.743
366,강원도,춘천시,석사동 ,820,퇴계(3)주공아파트,강원도 춘천시 석사동 820 퇴계(3)주공아파트,84.9,2,1999,2017,11,200531329.4606756,37.855,127.743
367,강원도,춘천시,석사동 ,822,퇴계(4)주공아파트,강원도 춘천시 석사동 822 퇴계(4)주공아파트,59.99,10,1998,2017,11,179244098.65354574,37.8547,127.7446
368,강원도,춘천시,석사동 ,822,퇴계(4)주공아파트,강원도 춘천시 석사동 822 퇴계(4)주공아파트,49.29,16,1998,2017,11,141707808.2286607,37.8547,127.7446
369,강원도,춘천시,석사동 ,822,퇴계(4)주공아파트,강원도 춘천시 석사동 822 퇴계(4)주공아파트,49.29,7,1998,2017,11,142870318.44148695,37.8547,127.7446
370,강원도,춘천시,석사동 ,822,퇴계(4)주공아파트,강원도 춘천시 석사동 822 퇴계(4)주공아파트,59.99,5,1998,2017,11,177325768.72224414,37.8547,127.7446
371,강원도,춘천시,석사동 ,822,퇴계(4)주공아파트,강원도 춘천시 석사동 822 퇴계(4)주공아파트,59.99,2,1998,2017,11,169325801.9103726,37.8547,127.7446
372,강원도,춘천시,석사동 ,866,휴먼타운아파트,강원도 춘천시 석사동 866 휴먼타운아파트,84.89,9,2002,2017,11,240514965.30037224,37.8534,127.7395
373,강원도,춘천시,석사동 ,866,휴먼타운아파트,강원도 춘천시 석사동 866 휴먼타운아파트,84.89,7,2002,2017,11,239295097.93529904,37.8534,127.7395
374,강원도,춘천시,석사동 ,866,휴먼타운아파트,강원도 춘천시 석사동 866 휴먼타운아파트,84.89,13,2002,2017,11,241163623.07959616,37.8534,127.7395
375,강원도,춘천시,소양로2가 ,1,소양로현대아파트,강원도 춘천시 소양로2가 1 소양로현대아파트,59.96,12,1998,2017,11,152982410.62636483,37.8891,127.7272
376,강원도,춘천시,소양로2가 ,183,e편한세상 춘천,강원도 춘천시 소양로2가 183 e편한세상 춘천,84.97,15,2014,2017,11,291191598.51482356,37.8855,127.7269
377,강원도,춘천시,온의동 ,509,보배아파트,강원도 춘천시 온의동 509 보배아파트,84.74,13,1992,2017,11,166334977.79521596,37.8696,127.7134
378,강원도,춘천시,온의동 ,510,럭키아파트,강원도 춘천시 온의동 510 럭키아파트,59.96,7,1993,2017,11,130132190.13057768,37.8659,127.7171
379,강원도,춘천시,온의동 ,510,럭키아파트,강원도 춘천시 온의동 510 럭키아파트,84.97,4,1993,2017,11,170669758.42714226,37.8659,127.7171
380,강원도,춘천시,온의동 ,573,온의 마젤란21 아파트,강원도 춘천시 온의동 573 온의 마젤란21 아파트,84.4,10,2007,2017,11,254521577.50512123,37.8676,127.7159
381,강원도,춘천시,온의동 ,590,온의롯데캐슬스카이클래스,강원도 춘천시 온의동 590 온의롯데캐슬스카이클래스,84.8,18,2015,2017,11,365918614.91518307,37.8698,127.7185
382,강원도,춘천시,우두동 ,1068-1,동부아파트,강원도 춘천시 우두동 1068-1 동부아파트,59.96,13,1994,2017,11,146417116.1933068,37.8984,127.7324
383,강원도,춘천시,우두동 ,1068-1,동부아파트,강원도 춘천시 우두동 1068-1 동부아파트,59.96,14,1994,2017,11,146095353.3582946,37.8984,127.7324
384,강원도,춘천시,우두동 ,1082,강변코아루아파트,강원도 춘천시 우두동 1082 강변코아루아파트,84.87,6,2007,2017,11,228610688.09554017,37.8972,127.73700000000001
385,강원도,춘천시,운교동 ,183,동부시장현대아파트,강원도 춘천시 운교동 183 동부시장현대아파트,55.56,6,1988,2017,11,87597334.69427395,37.8773,127.7341
386,강원도,춘천시,칠전동 ,585-1,칠전대우2차아파트,강원도 춘천시 칠전동 585-1 칠전대우2차아파트,71.78,9,2002,2017,11,181214405.7703482,37.8408,127.7117
387,강원도,춘천시,퇴계동 ,1031,뜨란채아파트,강원도 춘천시 퇴계동 1031 뜨란채아파트,84.94,12,2006,2017,11,273583740.087216,37.8496,127.7463
388,강원도,춘천시,퇴계동 ,1040,퇴계동 쌍용스윗닷홈,강원도 춘천시 퇴계동 1040 퇴계동 쌍용스윗닷홈,162.85,13,2005,2017,11,312731367.00219476,37.8576,127.7293
389,강원도,춘천시,퇴계동 ,1052,퇴계이안아파트,강원도 춘천시 퇴계동 1052 퇴계이안아파트,112.47,3,2007,2017,11,299878976.3623177,37.8577,127.7317
390,강원도,춘천시,퇴계동 ,1052,퇴계이안아파트,강원도 춘천시 퇴계동 1052 퇴계이안아파트,112.47,22,2007,2017,11,317616012.31125414,37.8577,127.7317
391,강원도,춘천시,퇴계동 ,1131,휴먼시아 남춘천2단지아파트,강원도 춘천시 퇴계동 1131 휴먼시아 남춘천2단지아파트,84.95,8,2010,2017,11,265542155.0773046,37.8597,127.7335
392,강원도,춘천시,퇴계동 ,1131,휴먼시아 남춘천2단지아파트,강원도 춘천시 퇴계동 1131 휴먼시아 남춘천2단지아파트,84.97,7,2010,2017,11,264604021.55347288,37.8597,127.7335
393,강원도,춘천시,퇴계동 ,1133,중앙하이츠빌3단지아파트,강원도 춘천시 퇴계동 1133 중앙하이츠빌3단지아파트,106.93,14,2008,2017,11,300714037.59641635,37.8526,127.7364
394,강원도,춘천시,퇴계동 ,1139,일성아파트,강원도 춘천시 퇴계동 1139 일성아파트,84.92,3,1996,2017,11,188676463.38674462,37.8667,127.7263
395,강원도,춘천시,퇴계동 ,916,현대2차아파트,강원도 춘천시 퇴계동 916 현대2차아파트,59.76,14,1994,2017,11,168745217.4773208,37.8577,127.7237
396,강원도,춘천시,퇴계동 ,916,현대2차아파트,강원도 춘천시 퇴계동 916 현대2차아파트,43.2,1,1994,2017,11,111947435.97340548,37.8577,127.7237
397,강원도,춘천시,퇴계동 ,916-2,퇴계현대1차아파트,강원도 춘천시 퇴계동 916-2 퇴계현대1차아파트,84.99,1,1994,2017,11,172910988.42219913,37.8572,127.7259
398,강원도,춘천시,퇴계동 ,916-2,퇴계현대1차아파트,강원도 춘천시 퇴계동 916-2 퇴계현대1차아파트,59.94,3,1994,2017,11,161246229.08648574,37.8572,127.7259
399,강원도,춘천시,퇴계동 ,916-2,퇴계현대1차아파트,강원도 춘천시 퇴계동 916-2 퇴계현대1차아파트,84.99,5,1994,2017,11,187526754.28720582,37.8572,127.7259
400,강원도,춘천시,퇴계동 ,916-2,퇴계현대1차아파트,강원도 춘천시 퇴계동 916-2 퇴계현대1차아파트,84.99,3,1994,2017,11,182404646.8686787,37.8572,127.7259
401,강원도,춘천시,퇴계동 ,917,"한성,한진아파트","강원도 춘천시 퇴계동 917 한성,한진아파트",84.83,12,1995,2017,11,191247008.58205616,37.8587,127.7224
402,강원도,춘천시,퇴계동 ,944,한주아파트,강원도 춘천시 퇴계동 944 한주아파트,134.43,4,1993,2017,11,174718380.23162806,37.8507,127.7383
403,강원도,춘천시,퇴계동 ,944,한주아파트,강원도 춘천시 퇴계동 944 한주아파트,84.6,1,1993,2017,11,151844379.99122608,37.8507,127.7383
404,강원도,춘천시,퇴계동 ,945,퇴계금호타운아파트,강원도 춘천시 퇴계동 945 퇴계금호타운아파트,59.82,13,1993,2017,11,159251340.33300602,37.8491,127.7373
405,강원도,춘천시,퇴계동 ,945,퇴계금호타운아파트,강원도 춘천시 퇴계동 945 퇴계금호타운아파트,84.6,11,1993,2017,11,174276144.04912817,37.8491,127.7373
406,강원도,춘천시,퇴계동 ,967,퇴계(1)주공아파트,강원도 춘천시 퇴계동 967 퇴계(1)주공아파트,49.71,8,2000,2017,11,161448422.52506244,37.8593,127.73700000000001
407,강원도,춘천시,퇴계동 ,967,퇴계(1)주공아파트,강원도 춘천시 퇴계동 967 퇴계(1)주공아파트,49.71,13,2000,2017,11,161403983.12494838,37.8593,127.73700000000001
408,강원도,춘천시,퇴계동 ,967,퇴계(1)주공아파트,강원도 춘천시 퇴계동 967 퇴계(1)주공아파트,49.71,3,2000,2017,11,155223961.37824667,37.8593,127.73700000000001
409,강원도,춘천시,퇴계동 ,983,퇴계(2)주공아파트,강원도 춘천시 퇴계동 983 퇴계(2)주공아파트,59.99,2,1999,2017,11,169937281.05761135,37.8579,127.7364
410,강원도,춘천시,퇴계동 ,983,퇴계(2)주공아파트,강원도 춘천시 퇴계동 983 퇴계(2)주공아파트,49.62,13,1999,2017,11,154853910.06122077,37.8579,127.7364
411,강원도,춘천시,효자동 ,821,동보아파트,강원도 춘천시 효자동 821 동보아파트,28.38,5,1999,2017,11,63394161.91076231,37.8633,127.7409
412,강원도,춘천시,효자동 ,821,동보아파트,강원도 춘천시 효자동 821 동보아파트,28.38,12,1999,2017,11,63146333.523905754,37.8633,127.7409
413,강원도,춘천시,효자동 ,822,현진에버빌3차아파트,강원도 춘천시 효자동 822 현진에버빌3차아파트,84.95,8,2014,2017,11,300987336.9911467,37.8737,127.7303
414,강원도,춘천시,후평동 ,427,현대2차아파트,강원도 춘천시 후평동 427 현대2차아파트,71.79,11,1990,2017,11,146857938.12980568,37.8815,127.751
415,강원도,춘천시,후평동 ,477,주공7단지아파트,강원도 춘천시 후평동 477 주공7단지아파트,39.69,1,1989,2017,11,79676449.01961327,37.8745,127.7498
416,강원도,춘천시,후평동 ,481,주공5단지아파트,강원도 춘천시 후평동 481 주공5단지아파트,39.69,4,1989,2017,11,106716431.61280096,37.8749,127.7478
417,강원도,춘천시,후평동 ,481,주공5단지아파트,강원도 춘천시 후평동 481 주공5단지아파트,47.01,5,1989,2017,11,114880538.43992317,37.8749,127.7478
418,강원도,춘천시,후평동 ,481,주공5단지아파트,강원도 춘천시 후평동 481 주공5단지아파트,39.3,1,1989,2017,11,103965475.28329933,37.8749,127.7478
419,강원도,춘천시,후평동 ,481,주공5단지아파트,강원도 춘천시 후평동 481 주공5단지아파트,39.69,1,1989,2017,11,104713217.76172769,37.8749,127.7478
420,강원도,춘천시,후평동 ,481,주공5단지아파트,강원도 춘천시 후평동 481 주공5단지아파트,51.02,1,1989,2017,11,107694667.0296818,37.8749,127.7478
421,강원도,춘천시,후평동 ,529-4,에리트아파트,강원도 춘천시 후평동 529-4 에리트아파트,63.4,1,1981,2017,11,95632963.8331399,37.8847,127.7409
422,강원도,춘천시,후평동 ,529-4,에리트아파트,강원도 춘천시 후평동 529-4 에리트아파트,77.02,3,1981,2017,11,116203397.90552318,37.8847,127.7409
423,강원도,춘천시,후평동 ,542-3,봉의아파트,강원도 춘천시 후평동 542-3 봉의아파트,41.57,5,1975,2017,11,54939886.79588747,37.8864,127.7429
424,강원도,춘천시,후평동 ,575-4,동산아파트,강원도 춘천시 후평동 575-4 동산아파트,82.77,8,1990,2017,11,120982689.17743552,37.8877,127.7424
425,강원도,춘천시,후평동 ,595,극동늘푸른아파트,강원도 춘천시 후평동 595 극동늘푸른아파트,59.86,8,1997,2017,11,135381404.7309271,37.89,127.7405
426,강원도,춘천시,후평동 ,808-1,후평4단지아파트,강원도 춘천시 후평동 808-1 후평4단지아파트,59.3,5,1985,2017,11,111084148.13870943,37.8774,127.7557
427,강원도,춘천시,후평동 ,808-1,후평4단지아파트,강원도 춘천시 후평동 808-1 후평4단지아파트,59.3,4,1986,2017,11,110563209.89524639,37.8774,127.7557
428,강원도,춘천시,후평동 ,808-1,후평4단지아파트,강원도 춘천시 후평동 808-1 후평4단지아파트,59.3,1,1986,2017,11,106153780.4022361,37.8774,127.7557
429,강원도,춘천시,후평동 ,845,현대아파트,강원도 춘천시 후평동 845 현대아파트,71.55,4,1988,2017,11,128760400.66931403,37.8851,127.7433
430,강원도,춘천시,후평동 ,864,한신아파트,강원도 춘천시 후평동 864 한신아파트,73.02,6,1991,2017,11,135846254.2695874,37.8729,127.7512
431,강원도,춘천시,후평동 ,864,한신아파트,강원도 춘천시 후평동 864 한신아파트,84.97,10,1991,2017,11,149892326.85373557,37.8729,127.7512
432,강원도,춘천시,후평동 ,867,대우아파트,강원도 춘천시 후평동 867 대우아파트,76.12,3,1991,2017,11,143496800.2602209,37.8761,127.7594
433,강원도,춘천시,후평동 ,867,대우아파트,강원도 춘천시 후평동 867 대우아파트,76.12,4,1991,2017,11,145652329.86358798,37.8761,127.7594
434,강원도,춘천시,후평동 ,885-1,세경4차아파트,강원도 춘천시 후평동 885-1 세경4차아파트,50.4,3,1994,2017,11,61264540.71093941,37.8728,127.7573
435,강원도,춘천시,후평동 ,885-1,세경4차아파트,강원도 춘천시 후평동 885-1 세경4차아파트,50.4,1,1994,2017,11,58553562.345713615,37.8728,127.7573
436,강원도,춘천시,후평동 ,885-1,세경4차아파트,강원도 춘천시 후평동 885-1 세경4차아파트,52.92,5,1994,2017,11,66055014.73215866,37.8728,127.7573
437,강원도,춘천시,후평동 ,885-1,세경4차아파트,강원도 춘천시 후평동 885-1 세경4차아파트,52.92,2,1994,2017,11,63495171.15091658,37.8728,127.7573
438,강원도,춘천시,후평동 ,885-1,세경4차아파트,강원도 춘천시 후평동 885-1 세경4차아파트,52.92,1,1994,2017,11,61722493.977862835,37.8728,127.7573
439,강원도,춘천시,후평동 ,885-1,세경4차아파트,강원도 춘천시 후평동 885-1 세경4차아파트,50.4,2,1994,2017,11,60097977.298233986,37.8728,127.7573
440,강원도,춘천시,후평동 ,893,동아아파트,강원도 춘천시 후평동 893 동아아파트,102.0,13,1995,2017,11,175967436.46777356,37.8709,127.7535
441,강원도,춘천시,후평동 ,899,석사2아파트,강원도 춘천시 후평동 899 석사2아파트,58.14,3,1995,2017,11,137993560.8343507,37.8717,127.7564
442,강원도,춘천시,후평동 ,899,석사2아파트,강원도 춘천시 후평동 899 석사2아파트,51.66,14,1994,2017,11,126745960.3293668,37.8717,127.7564
443,강원도,춘천시,후평동 ,901,현대4차아파트,강원도 춘천시 후평동 901 현대4차아파트,84.96,15,1995,2017,11,152363481.17287338,37.8813,127.7542
444,강원도,춘천시,후평동 ,903,초록지붕6차아파트,강원도 춘천시 후평동 903 초록지붕6차아파트,84.92,2,2004,2017,11,152497892.8623916,37.8802,127.7543
445,강원도,춘천시,후평동 ,904,춘천더샾아파트,강원도 춘천시 후평동 904 춘천더샾아파트,84.99,1,2008,2017,11,228195657.92374003,37.8797,127.7479
446,강원도,춘천시,후평동 ,904,춘천더샾아파트,강원도 춘천시 후평동 904 춘천더샾아파트,84.97,8,2008,2017,11,249274469.69391763,37.8797,127.7479
447,강원도,춘천시,후평동 ,904,춘천더샾아파트,강원도 춘천시 후평동 904 춘천더샾아파트,164.65,10,2008,2017,11,358562698.64814043,37.8797,127.7479
448,강원도,춘천시,후평동 ,904,춘천더샾아파트,강원도 춘천시 후평동 904 춘천더샾아파트,59.94,9,2008,2017,11,211254886.21293652,37.8797,127.7479
449,강원도,춘천시,후평동 ,904,춘천더샾아파트,강원도 춘천시 후평동 904 춘천더샾아파트,84.97,16,2008,2017,11,251135019.65715754,37.8797,127.7479
450,강원도,춘천시,후평동 ,93-53,개나리아파트,강원도 춘천시 후평동 93-53 개나리아파트,59.58,5,1988,2017,11,77378984.52119684,37.8825,127.7526
451,강원도,춘천시,동내면 거두리,1038,현대성우오스타,강원도 춘천시 동내면 거두리 1038 현대성우오스타,84.96,6,2009,2017,11,281794298.3345362,37.8571,127.7551
452,강원도,춘천시,동내면 거두리,1065,호반베르디움아파트,강원도 춘천시 동내면 거두리 1065 호반베르디움아파트,84.84,2,2009,2017,11,259914629.6716863,37.8582,127.7596
453,강원도,춘천시,동내면 거두리,939-1,부영아파트,강원도 춘천시 동내면 거두리 939-1 부영아파트,84.98,9,2003,2017,11,226821827.2826811,37.8553,127.7532
454,강원도,춘천시,동내면 거두리,939-3,부영아파트,강원도 춘천시 동내면 거두리 939-3 부영아파트,84.98,13,2003,2017,11,227501729.69262826,37.8546,127.7543
455,강원도,춘천시,동내면 거두리,939-3,부영아파트,강원도 춘천시 동내면 거두리 939-3 부영아파트,84.98,1,2003,2017,11,205849346.39998114,37.8546,127.7543
456,강원도,춘천시,동면 만천리,971,한일유앤아이아파트,강원도 춘천시 동면 만천리 971 한일유앤아이아파트,127.97,13,2006,2017,11,267067259.0109762,37.8807,127.7617
457,강원도,춘천시,동면 만천리,973,대동다숲아파트,강원도 춘천시 동면 만천리 973 대동다숲아파트,84.69,6,2008,2017,11,223539245.67550266,37.8831,127.7554
458,강원도,춘천시,동면 만천리,984,KCC스위첸아파트,강원도 춘천시 동면 만천리 984 KCC스위첸아파트,119.72,1,2009,2017,11,242688194.84853542,37.8784,127.7654
459,강원도,춘천시,동면 장학리,981,두산위브아파트,강원도 춘천시 동면 장학리 981 두산위브아파트,84.99,15,2008,2017,11,253260784.48515296,37.8887,127.7557
460,강원도,춘천시,동면 장학리,988,장학엘에이치해온채,강원도 춘천시 동면 장학리 988 장학엘에이치해온채,84.93,6,2014,2017,11,268852168.68294585,37.8975,127.7519
461,강원도,춘천시,신북읍 천전리,1352,소양강양우내안애아파트,강원도 춘천시 신북읍 천전리 1352 소양강양우내안애아파트,60.63,4,2012,2017,11,128990572.85094154,37.9322,127.7908
462,강원도,춘천시,신북읍 천전리,1352,소양강양우내안애아파트,강원도 춘천시 신북읍 천전리 1352 소양강양우내안애아파트,60.63,3,2012,2017,11,126928660.50089872,37.9322,127.7908
463,강원도,태백시,동점동 ,74,태백동점아파트,강원도 태백시 동점동 74 태백동점아파트,39.72,5,1986,2017,11,19640860.645314217,37.0964,129.0488
464,강원도,태백시,동점동 ,74,태백동점아파트,강원도 태백시 동점동 74 태백동점아파트,39.72,2,1986,2017,11,20693963.621114254,37.0964,129.0488
465,강원도,태백시,문곡동 ,119,유브리안아파트,강원도 태백시 문곡동 119 유브리안아파트,84.97,9,2008,2017,11,112518674.71896613,37.1199,129.003
466,강원도,태백시,소도동 ,19-1,삼신아파트,강원도 태백시 소도동 19-1 삼신아파트,43.68,3,1987,2017,11,20699970.521654606,37.1373,128.976
467,강원도,태백시,황지동 ,200-13,유진2차아트빌,강원도 태백시 황지동 200-13 유진2차아트빌,59.69,9,2002,2017,11,114074841.03516495,37.1578,128.9873
468,강원도,태백시,황지동 ,229-16,황지1주공아파트,강원도 태백시 황지동 229-16 황지1주공아파트,38.57,3,1983,2017,11,39907355.75625467,37.1599,128.987
469,강원도,태백시,황지동 ,229-16,황지1주공아파트,강원도 태백시 황지동 229-16 황지1주공아파트,45.69,3,1983,2017,11,49666352.99626303,37.1599,128.987
470,강원도,태백시,황지동 ,24,대산하이츠빌아파트,강원도 태백시 황지동 24 대산하이츠빌아파트,84.8,3,2002,2017,11,150959616.0291127,37.1712,128.995
471,강원도,태백시,황지동 ,59-113,우석아파트,강원도 태백시 황지동 59-113 우석아파트,41.25,5,1987,2017,11,41792881.01227522,37.1675,128.986
472,강원도,태백시,황지동 ,59-75,대림4차고층아파트,강원도 태백시 황지동 59-75 대림4차고층아파트,59.99,14,1990,2017,11,76896712.0549984,37.1673,128.9902
473,강원도,태백시,황지동 ,621-277,선명5차아파트,강원도 태백시 황지동 621-277 선명5차아파트,59.51,6,2001,2017,11,95398548.91350937,37.1805,128.9851
474,강원도,태백시,황지동 ,662,태백황지청솔아파트,강원도 태백시 황지동 662 태백황지청솔아파트,38.37,14,2001,2017,11,48772403.72507095,37.1642,128.9825
475,강원도,태백시,황지동 ,662,태백황지청솔아파트,강원도 태백시 황지동 662 태백황지청솔아파트,38.37,13,2001,2017,11,48877553.64423847,37.1642,128.9825
476,강원도,태백시,황지동 ,662,태백황지청솔아파트,강원도 태백시 황지동 662 태백황지청솔아파트,38.37,10,2001,2017,11,49204521.487728596,37.1642,128.9825
477,강원도,태백시,황지동 ,662,태백황지청솔아파트,강원도 태백시 황지동 662 태백황지청솔아파트,38.37,1,2001,2017,11,46611406.67582369,37.1642,128.9825
478,강원도,태백시,황지동 ,662,태백황지청솔아파트,강원도 태백시 황지동 662 태백황지청솔아파트,38.37,11,2001,2017,11,49097097.111074924,37.1642,128.9825
479,강원도,태백시,황지동 ,662,태백황지청솔아파트,강원도 태백시 황지동 662 태백황지청솔아파트,38.37,5,2001,2017,11,49217934.954954624,37.1642,128.9825
480,강원도,태백시,황지동 ,662,태백황지청솔아파트,강원도 태백시 황지동 662 태백황지청솔아파트,38.37,9,2001,2017,11,49301069.29204464,37.1642,128.9825
481,강원도,태백시,황지동 ,665,현대아파트,강원도 태백시 황지동 665 현대아파트,59.36,14,1997,2017,11,93677863.50581217,37.1613,128.983
482,강원도,태백시,황지동 ,674,태백황지주공3단지아파트,강원도 태백시 황지동 674 태백황지주공3단지아파트,59.9,3,2004,2017,11,97799559.54696846,37.1759,128.9813
483,강원도,평창군,대관령면 횡계리,283,알펜로제아파트,강원도 평창군 대관령면 횡계리 283 알펜로제아파트,59.96,4,2007,2017,11,156416287.39593947,37.6731,128.7161
484,강원도,평창군,대관령면 횡계리,304-6,힐탑아파트,강원도 평창군 대관령면 횡계리 304-6 힐탑아파트,45.33,14,1994,2017,11,49698836.914719105,37.6747,128.7114
485,강원도,평창군,봉평면 무이리,691-45,장웅파인힐아파트,강원도 평창군 봉평면 무이리 691-45 장웅파인힐아파트,47.19,1,2004,2017,11,76259018.32724619,37.5881,128.3237
486,강원도,평창군,봉평면 무이리,691-45,장웅파인힐아파트,강원도 평창군 봉평면 무이리 691-45 장웅파인힐아파트,35.51,6,2004,2017,11,61515401.7077775,37.5881,128.3237
487,강원도,평창군,봉평면 무이리,691-45,장웅파인힐아파트,강원도 평창군 봉평면 무이리 691-45 장웅파인힐아파트,35.51,7,2004,2017,11,61612911.782568455,37.5881,128.3237
488,강원도,평창군,봉평면 무이리,691-45,장웅파인힐아파트,강원도 평창군 봉평면 무이리 691-45 장웅파인힐아파트,47.19,2,2004,2017,11,78674375.53869486,37.5881,128.3237
489,강원도,평창군,봉평면 무이리,691-45,장웅파인힐아파트,강원도 평창군 봉평면 무이리 691-45 장웅파인힐아파트,35.51,10,2004,2017,11,61436174.77200985,37.5881,128.3237
490,강원도,평창군,봉평면 무이리,829,평창 코업스위트 하우스,강원도 평창군 봉평면 무이리 829 평창 코업스위트 하우스,30.51,5,2004,2017,11,54272362.68341303,37.5945,128.3182
491,강원도,평창군,봉평면 무이리,829,평창 코업스위트 하우스,강원도 평창군 봉평면 무이리 829 평창 코업스위트 하우스,30.51,3,2004,2017,11,53700978.13929558,37.5945,128.3182
492,강원도,평창군,진부면 송정리,2537,석미아파트,강원도 평창군 진부면 송정리 2537 석미아파트,59.22,13,1995,2017,11,86458706.2850523,37.6374,128.5634
493,강원도,평창군,진부면 송정리,2537,석미아파트,강원도 평창군 진부면 송정리 2537 석미아파트,54.72,2,1995,2017,11,76366209.42620897,37.6374,128.5634
494,강원도,평창군,진부면 송정리,2538,평창성원아파트,강원도 평창군 진부면 송정리 2538 평창성원아파트,38.37,4,1998,2017,11,50102903.03504753,37.6366,128.5634
495,강원도,평창군,진부면 송정리,2538,평창성원아파트,강원도 평창군 진부면 송정리 2538 평창성원아파트,38.37,5,1998,2017,11,50437219.12580061,37.6366,128.5634
496,강원도,평창군,진부면 송정리,2538,평창성원아파트,강원도 평창군 진부면 송정리 2538 평창성원아파트,38.37,12,1998,2017,11,49985185.28028345,37.6366,128.5634
497,강원도,평창군,진부면 송정리,2538,평창성원아파트,강원도 평창군 진부면 송정리 2538 평창성원아파트,38.37,13,1998,2017,11,49831251.164009094,37.6366,128.5634
498,강원도,평창군,평창읍 종부리,576-1,녹주아파트,강원도 평창군 평창읍 종부리 576-1 녹주아파트,51.75,7,2000,2017,11,62980823.00222111,37.3599,128.3891
499,강원도,평창군,평창읍 중리,72,평창스카이원아파트,강원도 평창군 평창읍 중리 72 평창스카이원아파트,83.11,3,2015,2017,11,190543734.66345322,37.3681,128.4034
500,강원도,평창군,평창읍 하리,179-1,평창1차아파트,강원도 평창군 평창읍 하리 179-1 평창1차아파트,72.45,1,1990,2017,11,71738971.46918821,37.372,128.3954
501,강원도,홍천군,홍천읍 갈마곡리,200,주공1차아파트,강원도 홍천군 홍천읍 갈마곡리 200 주공1차아파트,49.83,8,2001,2017,11,99350010.55974054,37.6918,127.8994
502,강원도,홍천군,홍천읍 갈마곡리,222,주공2차아파트,강원도 홍천군 홍천읍 갈마곡리 222 주공2차아파트,51.57,9,2004,2017,11,123619179.05998981,37.6924,127.90100000000001
503,강원도,홍천군,홍천읍 갈마곡리,222,주공2차아파트,강원도 홍천군 홍천읍 갈마곡리 222 주공2차아파트,59.97,3,2004,2017,11,133788293.06043398,37.6924,127.90100000000001
504,강원도,홍천군,홍천읍 갈마곡리,78-10,미소아파트,강원도 홍천군 홍천읍 갈마곡리 78-10 미소아파트,54.25,4,2013,2017,11,111182168.5084492,37.6939,127.9032
505,강원도,홍천군,홍천읍 연봉리,454,삼호1차아파트,강원도 홍천군 홍천읍 연봉리 454 삼호1차아파트,40.08,1,1989,2017,11,51608623.050591946,37.6856,127.8828
506,강원도,홍천군,홍천읍 연봉리,454,삼호1차아파트,강원도 홍천군 홍천읍 연봉리 454 삼호1차아파트,40.08,5,1989,2017,11,52170880.605053425,37.6856,127.8828
507,강원도,홍천군,홍천읍 연봉리,468,현대아파트,강원도 홍천군 홍천읍 연봉리 468 현대아파트,84.4,5,1996,2017,11,158480313.82505596,37.6809,127.8741
508,강원도,홍천군,홍천읍 연봉리,468,현대아파트,강원도 홍천군 홍천읍 연봉리 468 현대아파트,84.4,7,1996,2017,11,160343240.30477178,37.6809,127.8741
509,강원도,홍천군,홍천읍 연봉리,468-1,청솔아파트,강원도 홍천군 홍천읍 연봉리 468-1 청솔아파트,59.81,5,2000,2017,11,102563520.10063279,37.68,127.8746
510,강원도,홍천군,홍천읍 진리,50-5,우일궁전아파트,강원도 홍천군 홍천읍 진리 50-5 우일궁전아파트,84.76,2,2007,2017,11,142197064.4457301,37.6925,127.8884
511,강원도,홍천군,홍천읍 희망리,13-4,우신아파트,강원도 홍천군 홍천읍 희망리 13-4 우신아파트,29.79,4,1990,2017,11,36420291.67315769,37.6988,127.8928
512,강원도,홍천군,홍천읍 희망리,261-3,미진동백아파트,강원도 홍천군 홍천읍 희망리 261-3 미진동백아파트,59.85,3,1994,2017,11,84624035.56564522,37.6984,127.8845
513,강원도,홍천군,홍천읍 희망리,340-1,동일아파트,강원도 홍천군 홍천읍 희망리 340-1 동일아파트,143.87,4,2003,2017,11,157443088.31209195,37.692,127.8807
514,강원도,홍천군,홍천읍 희망리,424,신아아파트,강원도 홍천군 홍천읍 희망리 424 신아아파트,27.81,4,1998,2017,11,34831670.59821415,37.6993,127.8853
515,강원도,홍천군,홍천읍 희망리,425,신아아파트,강원도 홍천군 홍천읍 희망리 425 신아아파트,39.89,15,1999,2017,11,53417604.06429005,37.6991,127.8842
516,강원도,횡성군,둔내면 둔방내리,589,경림아파트,강원도 횡성군 둔내면 둔방내리 589 경림아파트,37.32,13,1999,2017,11,52338490.62595606,37.512,128.2099
517,강원도,횡성군,횡성읍 교항리,109,횡성보람더하임아파트,강원도 횡성군 횡성읍 교항리 109 횡성보람더하임아파트,84.89,1,2007,2017,11,174058918.77934492,37.4861,127.9817
518,강원도,횡성군,횡성읍 북천리,115-48,중앙아파트,강원도 횡성군 횡성읍 북천리 115-48 중앙아파트,37.14,3,1988,2017,11,40926108.59207153,37.494,127.9916
519,강원도,횡성군,횡성읍 북천리,115-48,중앙아파트,강원도 횡성군 횡성읍 북천리 115-48 중앙아파트,47.7,5,1988,2017,11,53791344.084803104,37.494,127.9916
520,강원도,횡성군,횡성읍 읍하리,395-2,횡성원흥아파트,강원도 횡성군 횡성읍 읍하리 395-2 횡성원흥아파트,52.95,3,1995,2017,11,70795217.41099167,37.4953,127.9835
521,강원도,횡성군,횡성읍 읍하리,500,금광포란재아파트,강원도 횡성군 횡성읍 읍하리 500 금광포란재아파트,70.59,9,2001,2017,11,113952603.52513993,37.4949,127.9846
522,강원도,횡성군,횡성읍 읍하리,500,금광포란재아파트,강원도 횡성군 횡성읍 읍하리 500 금광포란재아파트,84.69,14,2001,2017,11,144742371.91085875,37.4949,127.9846
523,강원도,횡성군,횡성읍 읍하리,500,금광포란재아파트,강원도 횡성군 횡성읍 읍하리 500 금광포란재아파트,70.59,5,2001,2017,11,112357479.8345629,37.4949,127.9846
524,강원도,횡성군,횡성읍 읍하리,518,대동황토방아파트,강원도 횡성군 횡성읍 읍하리 518 대동황토방아파트,84.93,12,1998,2017,11,136616843.38186705,37.4939,127.98700000000001
525,강원도,횡성군,횡성읍 입석리,161-1,횡성서도아파트,강원도 횡성군 횡성읍 입석리 161-1 횡성서도아파트,39.97,8,1998,2017,11,47747731.467847824,37.4798,127.9825
526,강원도,횡성군,횡성읍 입석리,161-1,횡성서도아파트,강원도 횡성군 횡성읍 입석리 161-1 횡성서도아파트,39.97,5,1998,2017,11,47909917.782437325,37.4798,127.9825
527,경기도,가평군,가평읍 달전리,281,세대넥스빌아파트,경기도 가평군 가평읍 달전리 281 세대넥스빌아파트,59.88,11,1996,2017,11,100595771.74850225,37.8138,127.5202
528,경기도,가평군,가평읍 대곡리,366-8,우림필유아파트,경기도 가평군 가평읍 대곡리 366-8 우림필유아파트,122.0,3,2006,2017,11,336555842.614262,37.8226,127.51
529,경기도,가평군,가평읍 대곡리,402-1,가평선힐아파트,경기도 가평군 가평읍 대곡리 402-1 가평선힐아파트,84.16,12,2008,2017,11,211133785.93165457,37.8187,127.5103
530,경기도,가평군,가평읍 대곡리,402-1,가평선힐아파트,경기도 가평군 가평읍 대곡리 402-1 가평선힐아파트,64.85,8,2008,2017,11,180832996.7457472,37.8187,127.5103
531,경기도,가평군,가평읍 읍내리,537-1,중앙아파트,경기도 가평군 가평읍 읍내리 537-1 중앙아파트,84.14,1,1990,2017,11,119123874.21702158,37.8291,127.5095
532,경기도,가평군,가평읍 읍내리,637-3,준수아파트,경기도 가평군 가평읍 읍내리 637-3 준수아파트,60.0,6,1992,2017,11,93557929.61298466,37.834,127.5089
533,경기도,가평군,가평읍 읍내리,771-1,가평에이원파란채아파트,경기도 가평군 가평읍 읍내리 771-1 가평에이원파란채아파트,115.8,11,2007,2017,11,260823406.6561054,37.8377,127.5063
534,경기도,가평군,청평면 청평리,76-19,청일덱스빌,경기도 가평군 청평면 청평리 76-19 청일덱스빌,84.92,2,2004,2017,11,127853883.56252539,37.7329,127.4152
535,경기도,가평군,청평면 청평리,837,청평삼성쉐르빌,경기도 가평군 청평면 청평리 837 청평삼성쉐르빌,84.68,8,2012,2017,11,234236412.88898194,37.7322,127.4163
536,경기도,가평군,청평면 청평리,837,청평삼성쉐르빌,경기도 가평군 청평면 청평리 837 청평삼성쉐르빌,84.66,15,2012,2017,11,236344536.091604,37.7322,127.4163
537,경기도,과천시,부림동 ,41,주공아파트,경기도 과천시 부림동 41 주공아파트,47.3,3,1982,2017,11,575750469.0425887,37.4355,126.9992
538,경기도,과천시,원문동 ,4,래미안슈르,경기도 과천시 원문동 4 래미안슈르,59.97,2,2008,2017,11,666605247.9513698,37.4207,126.9923
539,경기도,광명시,광명동 ,200-6,한진아파트,경기도 광명시 광명동 200-6 한진아파트,59.93,17,1997,2017,11,397742240.8672037,37.4778,126.8521
540,경기도,광명시,광명동 ,200-6,한진아파트,경기도 광명시 광명동 200-6 한진아파트,84.95,4,1997,2017,11,463702266.1181259,37.4778,126.8521
541,경기도,광명시,광명동 ,200-6,한진아파트,경기도 광명시 광명동 200-6 한진아파트,84.95,11,1997,2017,11,476224350.12756205,37.4778,126.8521
542,경기도,광명시,광명동 ,733,영화아파트,경기도 광명시 광명동 733 영화아파트,59.7,9,1995,2017,11,249269315.7149346,37.4669,126.8545
543,경기도,광명시,광명동 ,757,상우3차아파트,경기도 광명시 광명동 757 상우3차아파트,82.2,4,1997,2017,11,306671731.12384665,37.4701,126.8467
544,경기도,광명시,광명동 ,778,영화아이닉스아파트,경기도 광명시 광명동 778 영화아이닉스아파트,79.04,14,2005,2017,11,393997550.7342329,37.47,126.8512
545,경기도,광명시,광명동 ,778,영화아이닉스아파트,경기도 광명시 광명동 778 영화아이닉스아파트,54.66,7,2005,2017,11,324491784.7710277,37.47,126.8512
546,경기도,광명시,광명동 ,778,영화아이닉스아파트,경기도 광명시 광명동 778 영화아이닉스아파트,79.04,9,2005,2017,11,393779873.48892355,37.47,126.8512
547,경기도,광명시,광명동 ,781,월드메르디앙아파트,경기도 광명시 광명동 781 월드메르디앙아파트,84.83,22,2007,2017,11,452611719.818532,37.4768,126.8471
548,경기도,광명시,소하동 ,1294,휴먼시아5단지아파트,경기도 광명시 소하동 1294 휴먼시아5단지아파트,84.83,9,2009,2017,11,540252486.1813998,37.4518,126.8874
549,경기도,광명시,소하동 ,1363,신촌휴먼시아1단지아파트,경기도 광명시 소하동 1363 신촌휴먼시아1단지아파트,84.95,9,2010,2017,11,500055532.4732423,37.4497,126.8921
550,경기도,광명시,소하동 ,1363,신촌휴먼시아1단지아파트,경기도 광명시 소하동 1363 신촌휴먼시아1단지아파트,59.87,1,2010,2017,11,410909629.28905725,37.4497,126.8921
551,경기도,광명시,소하동 ,1378,광명역세권휴먼시아,경기도 광명시 소하동 1378 광명역세권휴먼시아,84.18,5,2011,2017,11,500692263.9305196,37.4328,126.8823
552,경기도,광명시,철산동 ,105,철산10단지주공아파트,경기도 광명시 철산동 105 철산10단지주공아파트,47.25,1,1985,2017,11,345761578.0707637,37.4856,126.8687
553,경기도,광명시,철산동 ,105,철산10단지주공아파트,경기도 광명시 철산동 105 철산10단지주공아파트,38.52,1,1985,2017,11,304693113.48930633,37.4856,126.8687
554,경기도,광명시,철산동 ,105,철산10단지주공아파트,경기도 광명시 철산동 105 철산10단지주공아파트,38.52,2,1985,2017,11,306299828.16514933,37.4856,126.8687
555,경기도,광명시,철산동 ,105,철산10단지주공아파트,경기도 광명시 철산동 105 철산10단지주공아파트,47.25,2,1985,2017,11,350494002.3965912,37.4856,126.8687
556,경기도,광명시,철산동 ,105,철산10단지주공아파트,경기도 광명시 철산동 105 철산10단지주공아파트,47.25,4,1985,2017,11,356039625.4629245,37.4856,126.8687
557,경기도,광명시,철산동 ,235,철산8단지주공아파트,경기도 광명시 철산동 235 철산8단지주공아파트,42.74,1,1985,2017,11,442846744.83769464,37.4825,126.8685
558,경기도,광명시,철산동 ,241,철산13단지주공아파트,경기도 광명시 철산동 241 철산13단지주공아파트,84.77,5,1986,2017,11,500808494.54000425,37.4792,126.8706
559,경기도,광명시,철산동 ,241,철산13단지주공아파트,경기도 광명시 철산동 241 철산13단지주공아파트,83.52,12,1986,2017,11,498984671.23322344,37.4792,126.8706
560,경기도,광명시,철산동 ,245,쌍마한신아파트,경기도 광명시 철산동 245 쌍마한신아파트,84.93,4,1992,2017,11,454009782.17973185,37.4771,126.868
561,경기도,광명시,철산동 ,367,세이브존,경기도 광명시 철산동 367 세이브존,89.46,18,1992,2017,11,418383088.3525958,37.4722,126.8765
562,경기도,광명시,철산동 ,449,철산12단지주공아파트,경기도 광명시 철산동 449 철산12단지주공아파트,61.38,9,1986,2017,11,448781854.1686759,37.4757,126.87200000000001
563,경기도,광명시,철산동 ,449,철산12단지주공아파트,경기도 광명시 철산동 449 철산12단지주공아파트,83.01,11,1986,2017,11,517877510.66137314,37.4757,126.87200000000001
564,경기도,광명시,철산동 ,449,철산12단지주공아파트,경기도 광명시 철산동 449 철산12단지주공아파트,61.38,2,1986,2017,11,429437593.2489476,37.4757,126.87200000000001
565,경기도,광명시,철산동 ,449,철산12단지주공아파트,경기도 광명시 철산동 449 철산12단지주공아파트,60.21,11,1986,2017,11,439899106.25506353,37.4757,126.87200000000001
566,경기도,광명시,철산동 ,449,철산12단지주공아파트,경기도 광명시 철산동 449 철산12단지주공아파트,61.38,7,1986,2017,11,449036710.04597044,37.4757,126.87200000000001
567,경기도,광명시,철산동 ,625,도덕파크타운 2차,경기도 광명시 철산동 625 도덕파크타운 2차,39.65,24,2001,2017,11,270332964.4352045,37.47,126.865
568,경기도,광명시,철산동 ,625,도덕파크타운 2차,경기도 광명시 철산동 625 도덕파크타운 2차,39.65,13,2001,2017,11,272650498.1049651,37.47,126.865
569,경기도,광명시,철산동 ,625,도덕파크타운 2차,경기도 광명시 철산동 625 도덕파크타운 2차,49.98,21,2001,2017,11,352905947.9218106,37.47,126.865
570,경기도,광명시,철산동 ,625,도덕파크타운 2차,경기도 광명시 철산동 625 도덕파크타운 2차,49.97,19,2001,2017,11,353429802.13640976,37.47,126.865
571,경기도,광명시,철산동 ,625,도덕파크타운 2차,경기도 광명시 철산동 625 도덕파크타운 2차,49.97,11,2001,2017,11,355640020.7784343,37.47,126.865
572,경기도,광명시,하안동 ,110,하안12단지고층주공아파트,경기도 광명시 하안동 110 하안12단지고층주공아파트,44.89,2,1990,2017,11,263531767.93723655,37.4611,126.8821
573,경기도,광명시,하안동 ,13,하안9단지고층주공아파트,경기도 광명시 하안동 13 하안9단지고층주공아파트,59.39,14,1990,2017,11,319386021.37071836,37.4677,126.8774
574,경기도,광명시,하안동 ,27,하안11단지고층주공아파트,경기도 광명시 하안동 27 하안11단지고층주공아파트,41.3,13,1990,2017,11,256381303.7065152,37.4647,126.8817
575,경기도,광명시,하안동 ,295,하안7단지고층주공아파트,경기도 광명시 하안동 295 하안7단지고층주공아파트,58.01,10,1990,2017,11,324264922.21663964,37.4591,126.8806
576,경기도,광명시,하안동 ,30,하안10단지고층주공아파트,경기도 광명시 하안동 30 하안10단지고층주공아파트,45.55,14,1990,2017,11,256068208.59570503,37.4653,126.8796
577,경기도,광명시,하안동 ,30,하안10단지고층주공아파트,경기도 광명시 하안동 30 하안10단지고층주공아파트,45.55,3,1990,2017,11,253818048.43904388,37.4653,126.8796
578,경기도,광명시,하안동 ,650,하안3단지고층주공아파트,경기도 광명시 하안동 650 하안3단지고층주공아파트,49.94,5,1989,2017,11,291358683.6609217,37.4628,126.876
579,경기도,광명시,하안동 ,650,하안3단지고층주공아파트,경기도 광명시 하안동 650 하안3단지고층주공아파트,36.16,9,1989,2017,11,213160218.20289898,37.4628,126.876
580,경기도,광명시,하안동 ,682,하안1단지고층주공아파트,경기도 광명시 하안동 682 하안1단지고층주공아파트,49.94,4,1989,2017,11,285803875.2855097,37.465,126.8737
581,경기도,광명시,하안동 ,682,하안1단지고층주공아파트,경기도 광명시 하안동 682 하안1단지고층주공아파트,36.34,8,1989,2017,11,217343011.12928426,37.465,126.8737
582,경기도,광명시,하안동 ,864,이편한세상센트레빌아파트,경기도 광명시 하안동 864 이편한세상센트레빌아파트,59.98,21,2010,2017,11,516407627.9310913,37.4675,126.8671
583,경기도,광주시,송정동 ,123-1,송정동파라다이스아파트,경기도 광주시 송정동 123-1 송정동파라다이스아파트,84.99,9,2001,2017,11,287227175.37689245,37.4186,127.2556
584,경기도,광주시,송정동 ,123-1,송정동파라다이스아파트,경기도 광주시 송정동 123-1 송정동파라다이스아파트,84.99,7,2001,2017,11,286102062.4938866,37.4186,127.2556
585,경기도,광주시,송정동 ,367-7,송정동대주파크빌,경기도 광주시 송정동 367-7 송정동대주파크빌,84.99,7,2005,2017,11,227176467.69225276,37.4327,127.2544
586,경기도,광주시,송정동 ,55,현대아파트,경기도 광주시 송정동 55 현대아파트,84.96,14,2002,2017,11,291541427.57202065,37.4175,127.2584
587,경기도,광주시,송정동 ,55,현대아파트,경기도 광주시 송정동 55 현대아파트,120.58,13,2002,2017,11,354182589.24490356,37.4175,127.2584
588,경기도,광주시,송정동 ,560,브라운스톤광주아파트,경기도 광주시 송정동 560 브라운스톤광주아파트,123.4,9,2004,2017,11,316593570.7719501,37.4407,127.2078
589,경기도,광주시,쌍령동 ,337,동성1차아파트,경기도 광주시 쌍령동 337 동성1차아파트,84.98,14,2001,2017,11,238447731.30300605,37.3985,127.2772
590,경기도,광주시,쌍령동 ,349,쌍령2차동성아파트,경기도 광주시 쌍령동 349 쌍령2차동성아파트,84.53,6,2002,2017,11,258491278.55080867,37.3972,127.2782
591,경기도,광주시,쌍령동 ,360-1,쌍령2차현대모닝사이드,경기도 광주시 쌍령동 360-1 쌍령2차현대모닝사이드,84.9,13,2003,2017,11,252769683.91634,37.3979,127.28
592,경기도,광주시,장지동 ,755,금광포란재아파트,경기도 광주시 장지동 755 금광포란재아파트,84.61,11,2004,2017,11,239965596.3383323,37.3911,127.2331
593,경기도,광주시,태전동 ,193,3단지성원아파트,경기도 광주시 태전동 193 3단지성원아파트,134.94,9,2000,2017,11,370994095.95524406,37.3868,127.2305
594,경기도,광주시,태전동 ,222,2단지성원아파트,경기도 광주시 태전동 222 2단지성원아파트,84.99,16,2000,2017,11,274737845.0132425,37.388000000000005,127.2303
595,경기도,광주시,태전동 ,228-1,태전5차성원상떼빌,경기도 광주시 태전동 228-1 태전5차성원상떼빌,84.96,1,2002,2017,11,258588883.39466155,37.3878,127.228
596,경기도,광주시,태전동 ,688,쌍용2단지아파트,경기도 광주시 태전동 688 쌍용2단지아파트,84.75,7,2004,2017,11,272887479.0791954,37.3867,127.2378
597,경기도,광주시,태전동 ,690,쌍용1단지아파트,경기도 광주시 태전동 690 쌍용1단지아파트,84.75,13,2004,2017,11,273483591.0585469,37.3882,127.23899999999999
598,경기도,광주시,곤지암읍 곤지암리,337-12,엘지아파트,경기도 광주시 곤지암읍 곤지암리 337-12 엘지아파트,80.55,18,1997,2017,11,185811405.10668766,37.3478,127.3471
599,경기도,광주시,곤지암읍 곤지암리,337-12,엘지아파트,경기도 광주시 곤지암읍 곤지암리 337-12 엘지아파트,80.55,4,1997,2017,11,184239259.26866305,37.3478,127.3471
600,경기도,광주시,곤지암읍 곤지암리,457,곤지암2차쌍용아파트,경기도 광주시 곤지암읍 곤지암리 457 곤지암2차쌍용아파트,84.8,10,2000,2017,11,230471413.01704824,37.3462,127.3381
601,경기도,광주시,곤지암읍 삼리,125-1,킴스빌리지아파트,경기도 광주시 곤지암읍 삼리 125-1 킴스빌리지아파트,35.63,4,2001,2017,11,133571694.72444499,37.3575,127.3263
602,경기도,광주시,곤지암읍 삼리,679,현진에버빌아파트,경기도 광주시 곤지암읍 삼리 679 현진에버빌아파트,77.1,9,2003,2017,11,254913578.79487407,37.3558,127.32799999999999
603,경기도,광주시,오포읍 고산리,182-4,우림아파트,경기도 광주시 오포읍 고산리 182-4 우림아파트,84.12,1,1998,2017,11,217299256.98238719,37.3709,127.23200000000001
604,경기도,광주시,오포읍 고산리,396,금호베스트빌,경기도 광주시 오포읍 고산리 396 금호베스트빌,125.69,6,2002,2017,11,312776593.71451557,37.3732,127.2277
605,경기도,광주시,오포읍 고산리,396,금호베스트빌,경기도 광주시 오포읍 고산리 396 금호베스트빌,125.69,14,2002,2017,11,318595326.63745534,37.3732,127.2277
606,경기도,광주시,오포읍 능평리,463-1,오포현대아파트,경기도 광주시 오포읍 능평리 463-1 오포현대아파트,84.86,13,2001,2017,11,287344980.6107906,37.3537,127.1627
607,경기도,광주시,오포읍 능평리,917,오포롯데캐슬포레스트,경기도 광주시 오포읍 능평리 917 오포롯데캐슬포레스트,101.74,8,2009,2017,11,420911993.48008394,37.35,127.1645
608,경기도,광주시,오포읍 문형리,140-1,우림퓨전빌아파트,경기도 광주시 오포읍 문형리 140-1 우림퓨전빌아파트,84.22,12,2002,2017,11,193564491.22232187,37.3532,127.2073
609,경기도,광주시,오포읍 신현리,681-3,현대모닝사이드1차아파트,경기도 광주시 오포읍 신현리 681-3 현대모닝사이드1차아파트,150.46,3,2002,2017,11,435229586.7165694,37.3631,127.1553
610,경기도,광주시,오포읍 양벌리,343-1,대주파크빌1차 C블럭,경기도 광주시 오포읍 양벌리 343-1 대주파크빌1차 C블럭,84.99,14,2003,2017,11,210887707.12747967,37.3773,127.2648
611,경기도,광주시,오포읍 양벌리,355-1,대주파크빌1차A블럭,경기도 광주시 오포읍 양벌리 355-1 대주파크빌1차A블럭,84.99,1,2003,2017,11,206515339.62760913,37.3757,127.2616
612,경기도,광주시,오포읍 양벌리,616,광주양촌 현대아파트,경기도 광주시 오포읍 양벌리 616 광주양촌 현대아파트,84.82,15,2000,2017,11,250386125.37013042,37.3702,127.2489
613,경기도,광주시,오포읍 양벌리,940-5,대주2차아파트,경기도 광주시 오포읍 양벌리 940-5 대주2차아파트,85.0,10,2002,2017,11,225229809.10136402,37.3653,127.2472
614,경기도,광주시,초월읍 대쌍령리,61-1,우림아파트,경기도 광주시 초월읍 대쌍령리 61-1 우림아파트,137.92,10,1999,2017,11,275815143.25954425,37.385999999999996,127.2939
615,경기도,광주시,초월읍 대쌍령리,61-1,우림아파트,경기도 광주시 초월읍 대쌍령리 61-1 우림아파트,186.78,10,1999,2017,11,331500029.79951394,37.385999999999996,127.2939
616,경기도,광주시,초월읍 도평리,259,대주피오레,경기도 광주시 초월읍 도평리 259 대주피오레,84.6,8,2007,2017,11,248235516.4680555,37.3944,127.2897
617,경기도,광주시,초월읍 산이리,432,산이리대주파크빌,경기도 광주시 초월읍 산이리 432 산이리대주파크빌,84.62,1,2004,2017,11,225376526.18907654,37.364000000000004,127.309
618,경기도,광주시,초월읍 쌍동리,389,롯데낙천대아파트,경기도 광주시 초월읍 쌍동리 389 롯데낙천대아파트,74.71,8,2004,2017,11,296998594.65394056,37.3727,127.2982
619,경기도,광주시,초월읍 쌍동리,389,롯데낙천대아파트,경기도 광주시 초월읍 쌍동리 389 롯데낙천대아파트,84.93,10,2004,2017,11,322062285.09956896,37.3727,127.2982
620,경기도,광주시,초월읍 지월리,546,광주1차세광엔리치빌아파트,경기도 광주시 초월읍 지월리 546 광주1차세광엔리치빌아파트,84.93,3,2002,2017,11,193575265.73566973,37.4261,127.287
621,경기도,광주시,초월읍 지월리,546,광주1차세광엔리치빌아파트,경기도 광주시 초월읍 지월리 546 광주1차세광엔리치빌아파트,84.93,17,2002,2017,11,201027686.06746137,37.4261,127.287
622,경기도,광주시,초월읍 지월리,546,광주1차세광엔리치빌아파트,경기도 광주시 초월읍 지월리 546 광주1차세광엔리치빌아파트,84.93,1,2002,2017,11,183704134.82562292,37.4261,127.287
623,경기도,구리시,교문동 ,1-8,동방아파트,경기도 구리시 교문동 1-8 동방아파트,84.54,22,1998,2017,11,325816510.4581548,37.5962,127.1375
624,경기도,구리시,교문동 ,767,일성아파트,경기도 구리시 교문동 767 일성아파트,59.8,9,1999,2017,11,298300182.1101028,37.594,127.1379
625,경기도,구리시,교문동 ,809-1,하나아파트,경기도 구리시 교문동 809-1 하나아파트,101.83,14,1994,2017,11,456229594.3667941,37.5911,127.1371
626,경기도,구리시,교문동 ,809-1,하나아파트,경기도 구리시 교문동 809-1 하나아파트,84.73,3,1994,2017,11,394519946.963264,37.5911,127.1371
627,경기도,구리시,교문동 ,820,금호아파트,경기도 구리시 교문동 820 금호아파트,54.98,13,2001,2017,11,401729510.6389861,37.5866,127.1334
628,경기도,구리시,교문동 ,826,,경기도 구리시 교문동 826 ,84.63,15,2001,2017,11,571745382.6871648,37.5857,127.137
629,경기도,구리시,교문동 ,829,아차산어울림아파트,경기도 구리시 교문동 829 아차산어울림아파트,84.85,1,2010,2017,11,418028797.8595605,37.5973,127.1294
630,경기도,구리시,수택동 ,487-4,그린하우스,경기도 구리시 수택동 487-4 그린하우스,35.52,8,2015,2017,11,184950625.00716865,37.5967,127.1443
631,경기도,구리시,수택동 ,506-9,하이스트빌,경기도 구리시 수택동 506-9 하이스트빌,84.8,9,2008,2017,11,269828464.9790212,37.5972,127.1452
632,경기도,구리시,수택동 ,512-13,대우아파트,경기도 구리시 수택동 512-13 대우아파트,57.07,5,1991,2017,11,192112862.47135198,37.5979,127.1445
633,경기도,구리시,수택동 ,854,,경기도 구리시 수택동 854 ,62.25,10,1995,2017,11,340402912.493821,37.5905,127.1393
634,경기도,구리시,수택동 ,879,토평주공아파트,경기도 구리시 수택동 879 토평주공아파트,46.2,9,2002,2017,11,279327343.01383436,37.5952,127.1522
635,경기도,구리시,인창동 ,29,한진그랑빌아파트,경기도 구리시 인창동 29 한진그랑빌아파트,84.97,18,2002,2017,11,295114687.76190054,37.6184,127.1423
636,경기도,구리시,인창동 ,297-2,충효아파트,경기도 구리시 인창동 297-2 충효아파트,44.03,3,1989,2017,11,218137132.1286322,37.6018,127.1378
637,경기도,구리시,인창동 ,383-36,비둘기아파트,경기도 구리시 인창동 383-36 비둘기아파트,62.16,4,1990,2017,11,206409329.49695647,37.6073,127.1385
638,경기도,구리시,인창동 ,508,현대아파트,경기도 구리시 인창동 508 현대아파트,82.08,24,2002,2017,11,406798109.9871659,37.6085,127.1368
639,경기도,구리시,인창동 ,640-1,아름마을LG아파트,경기도 구리시 인창동 640-1 아름마을LG아파트,121.74,2,1999,2017,11,359605187.4890051,37.6071,127.1321
640,경기도,구리시,인창동 ,664-1,인창2단지주공아파트,경기도 구리시 인창동 664-1 인창2단지주공아파트,49.95,15,1997,2017,11,264584776.14397466,37.61,127.1421
641,경기도,구리시,인창동 ,665-1,삼보아파트,경기도 구리시 인창동 665-1 삼보아파트,101.94,9,1996,2017,11,450068788.86987925,37.6067,127.1406
642,경기도,구리시,인창동 ,666-1,인창4단지주공아파트,경기도 구리시 인창동 666-1 인창4단지주공아파트,59.97,19,1996,2017,11,300079376.4786457,37.6078,127.1434
643,경기도,구리시,인창동 ,666-1,인창4단지주공아파트,경기도 구리시 인창동 666-1 인창4단지주공아파트,59.97,3,1996,2017,11,294838632.7744466,37.6078,127.1434
644,경기도,구리시,인창동 ,666-1,인창4단지주공아파트,경기도 구리시 인창동 666-1 인창4단지주공아파트,59.97,9,1996,2017,11,305512836.71522915,37.6078,127.1434
645,경기도,구리시,인창동 ,668-1,인창6단지주공아파트,경기도 구리시 인창동 668-1 인창6단지주공아파트,58.14,12,1996,2017,11,325403259.0287477,37.6062,127.1452
646,경기도,구리시,인창동 ,691,원일가대라곡아파트,경기도 구리시 인창동 691 원일가대라곡아파트,60.0,12,2005,2017,11,329592430.64199317,37.613,127.1391
647,경기도,구리시,인창동 ,703,동원베네스트,경기도 구리시 인창동 703 동원베네스트,84.98,17,2004,2017,11,389847511.4536338,37.6074,127.1333
648,경기도,구리시,인창동 ,703,동원베네스트,경기도 구리시 인창동 703 동원베네스트,59.81,1,2004,2017,11,297885866.351231,37.6074,127.1333
649,경기도,구리시,인창동 ,703,동원베네스트,경기도 구리시 인창동 703 동원베네스트,59.81,5,2004,2017,11,324075194.55466974,37.6074,127.1333
650,경기도,구리시,인창동 ,707,동문굿모닝힐,경기도 구리시 인창동 707 동문굿모닝힐,84.99,12,2007,2017,11,442405062.6897106,37.6058,127.1383
651,경기도,구리시,인창동 ,714,구리더샵그린포레(2단지),경기도 구리시 인창동 714 구리더샵그린포레(2단지),84.98,7,2015,2017,11,496803174.90688944,37.602,127.1298
652,경기도,구리시,토평동 ,269-1,유진스웰,경기도 구리시 토평동 269-1 유진스웰,103.68,12,2009,2017,11,506166795.6205549,37.5878,127.1479
653,경기도,구리시,토평동 ,269-1,유진스웰,경기도 구리시 토평동 269-1 유진스웰,84.99,1,2009,2017,11,379166600.7792382,37.5878,127.1479
654,경기도,구리시,토평동 ,959,상록아파트,경기도 구리시 토평동 959 상록아파트,84.4,3,2002,2017,11,443482484.8647857,37.5886,127.1458
655,경기도,구리시,토평동 ,961,한일아파트,경기도 구리시 토평동 961 한일아파트,59.78,8,2001,2017,11,429942172.8943372,37.5884,127.1424
656,경기도,군포시,금정동 ,713,한양아파트,경기도 군포시 금정동 713 한양아파트,59.88,2,1989,2017,11,198913679.89307225,37.3617,126.9382
657,경기도,군포시,금정동 ,770-4,기오7차아파트,경기도 군포시 금정동 770-4 기오7차아파트,41.22,1,1987,2017,11,130855117.6946379,37.3636,126.9455
658,경기도,군포시,금정동 ,849,무궁화주공아파트,경기도 군포시 금정동 849 무궁화주공아파트,41.85,6,1992,2017,11,221418197.43081987,37.3574,126.93700000000001
659,경기도,군포시,금정동 ,849,무궁화주공아파트,경기도 군포시 금정동 849 무궁화주공아파트,51.66,11,1992,2017,11,269648462.08079016,37.3574,126.93700000000001
660,경기도,군포시,금정동 ,871-11,다산아파트,경기도 군포시 금정동 871-11 다산아파트,84.82,7,1992,2017,11,389245450.89316463,37.351,126.931
661,경기도,군포시,금정동 ,871-11,다산아파트,경기도 군포시 금정동 871-11 다산아파트,59.97,5,1992,2017,11,287917881.4598988,37.351,126.931
662,경기도,군포시,금정동 ,871-11,다산아파트,경기도 군포시 금정동 871-11 다산아파트,74.16,2,1992,2017,11,331838953.12466204,37.351,126.931
663,경기도,군포시,금정동 ,872,주공2단지,경기도 군포시 금정동 872 주공2단지,51.66,11,1992,2017,11,272782700.9463477,37.3561,126.9346
664,경기도,군포시,금정동 ,872,주공2단지,경기도 군포시 금정동 872 주공2단지,44.06,10,1993,2017,11,237112595.5989231,37.3561,126.9346
665,경기도,군포시,금정동 ,872,주공2단지,경기도 군포시 금정동 872 주공2단지,42.75,15,1993,2017,11,228530032.33391583,37.3561,126.9346
666,경기도,군포시,금정동 ,875,퇴계주공아파트,경기도 군포시 금정동 875 퇴계주공아파트,42.75,10,1993,2017,11,215108196.2707268,37.3549,126.9302
667,경기도,군포시,금정동 ,875,퇴계주공아파트,경기도 군포시 금정동 875 퇴계주공아파트,37.67,5,1995,2017,11,190230530.20372546,37.3549,126.9302
668,경기도,군포시,금정동 ,875,퇴계주공아파트,경기도 군포시 금정동 875 퇴계주공아파트,37.67,14,1995,2017,11,190169221.9105891,37.3549,126.9302
669,경기도,군포시,금정동 ,876,여수룬유치원,경기도 군포시 금정동 876 여수룬유치원,51.66,15,1994,2017,11,275638275.0302845,37.354,126.932
670,경기도,군포시,금정동 ,876,여수룬유치원,경기도 군포시 금정동 876 여수룬유치원,58.46,14,1994,2017,11,307779654.35700524,37.354,126.932
671,경기도,군포시,금정동 ,876,여수룬유치원,경기도 군포시 금정동 876 여수룬유치원,51.66,19,1994,2017,11,273133207.96683395,37.354,126.932
672,경기도,군포시,금정동 ,876,여수룬유치원,경기도 군포시 금정동 876 여수룬유치원,58.65,17,1994,2017,11,306598452.7691966,37.354,126.932
673,경기도,군포시,당동 ,873,쌍용아파트,경기도 군포시 당동 873 쌍용아파트,125.0,8,1998,2017,11,465406767.8860178,37.3449,126.9423
674,경기도,군포시,당동 ,874,주공2단지아파트,경기도 군포시 당동 874 주공2단지아파트,49.59,13,1997,2017,11,251788882.4448594,37.3435,126.941
675,경기도,군포시,당동 ,885,주공4단지아파트,경기도 군포시 당동 885 주공4단지아파트,59.99,12,1997,2017,11,315572164.4023994,37.3436,126.9437
676,경기도,군포시,당동 ,885,주공4단지아파트,경기도 군포시 당동 885 주공4단지아파트,59.99,8,1997,2017,11,315818972.19935834,37.3436,126.9437
677,경기도,군포시,당동 ,902,덕산아파트,경기도 군포시 당동 902 덕산아파트,59.99,2,2002,2017,11,280389317.83181596,37.349000000000004,126.9452
678,경기도,군포시,당동 ,979-1,용호마을e-편한세상,경기도 군포시 당동 979-1 용호마을e-편한세상,120.63,6,2005,2017,11,507252732.43134737,37.3435,126.9367
679,경기도,군포시,당정동 ,1012-3,대원칸타빌,경기도 군포시 당정동 1012-3 대원칸타빌,84.85,3,2009,2017,11,362796922.01543856,37.3423,126.9503
680,경기도,군포시,당정동 ,1022-1,대원칸타빌,경기도 군포시 당정동 1022-1 대원칸타빌,126.71,3,2009,2017,11,453407984.05666494,37.3417,126.9498
681,경기도,군포시,당정동 ,1023-1,대원칸타빌,경기도 군포시 당정동 1023-1 대원칸타빌,84.85,5,2009,2017,11,371417903.20016384,37.3421,126.9497
682,경기도,군포시,당정동 ,973-1,당정마을 엘지아파트,경기도 군포시 당정동 973-1 당정마을 엘지아파트,84.91,9,2003,2017,11,369141317.05508184,37.3448,126.9557
683,경기도,군포시,당정동 ,997-1,청천마을성원아파트,경기도 군포시 당정동 997-1 청천마을성원아파트,84.13,1,2004,2017,11,319613991.9941381,37.3438,126.9523
684,경기도,군포시,대야미동 ,636-3,센트럴아이파크,경기도 군포시 대야미동 636-3 센트럴아이파크,84.81,7,2007,2017,11,363860639.126174,37.3321,126.9152
685,경기도,군포시,대야미동 ,667-3,군포대야미이-편한세상,경기도 군포시 대야미동 667-3 군포대야미이-편한세상,84.93,13,2008,2017,11,356439463.4251056,37.3253,126.9163
686,경기도,군포시,부곡동 ,1080,휴먼시아,경기도 군포시 부곡동 1080 휴먼시아,121.72,12,2010,2017,11,466191951.4338336,37.3239,126.9342
687,경기도,군포시,부곡동 ,1199,삼성마을,경기도 군포시 부곡동 1199 삼성마을,59.79,22,2013,2017,11,377326127.2772703,37.3365,126.9327
688,경기도,군포시,산본동 ,1052,주공11단지아파트,경기도 군포시 산본동 1052 주공11단지아파트,58.01,3,1991,2017,11,300656111.82979786,37.3652,126.9323
689,경기도,군포시,산본동 ,1052,주공11단지아파트,경기도 군포시 산본동 1052 주공11단지아파트,41.3,14,1992,2017,11,218712001.25825727,37.3652,126.9323
690,경기도,군포시,산본동 ,1052,주공11단지아파트,경기도 군포시 산본동 1052 주공11단지아파트,58.01,7,1991,2017,11,310095256.19588816,37.3652,126.9323
691,경기도,군포시,산본동 ,1052,주공11단지아파트,경기도 군포시 산본동 1052 주공11단지아파트,49.94,5,1991,2017,11,267620644.7232561,37.3652,126.9323
692,경기도,군포시,산본동 ,1055,관리사무소(매화종합사회복지관),경기도 군포시 산본동 1055 관리사무소(매화종합사회복지관),49.69,8,1995,2017,11,228988845.8123244,37.3748,126.9361
693,경기도,군포시,산본동 ,1066,개나리아파트,경기도 군포시 산본동 1066 개나리아파트,59.98,11,1995,2017,11,288767901.62592566,37.3739,126.9313
694,경기도,군포시,산본동 ,1088,한양목련아파트,경기도 군포시 산본동 1088 한양목련아파트,128.11,24,1994,2017,11,441871177.5344033,37.3706,126.928
695,경기도,군포시,산본동 ,1091-1,우방목련아파트,경기도 군포시 산본동 1091-1 우방목련아파트,84.97,16,1994,2017,11,383032566.15175915,37.3678,126.9292
696,경기도,군포시,산본동 ,1092,장미유치원,경기도 군포시 산본동 1092 장미유치원,101.82,18,1993,2017,11,415725180.6620469,37.3671,126.932
697,경기도,군포시,산본동 ,1119,천사몬테소리유치원,경기도 군포시 산본동 1119 천사몬테소리유치원,96.36,12,1994,2017,11,423044880.56757927,37.3646,126.9238
698,경기도,군포시,산본동 ,1121,주몽마을대림아파트,경기도 군포시 산본동 1121 주몽마을대림아파트,84.24,15,2002,2017,11,494711840.40808344,37.3642,126.9293
699,경기도,군포시,산본동 ,1145,주공6단지세종아파트,경기도 군포시 산본동 1145 주공6단지세종아파트,58.46,9,1994,2017,11,316571890.5265533,37.3584,126.9288
700,경기도,군포시,산본동 ,1146,솔거(대림)아파트,경기도 군포시 산본동 1146 솔거(대림)아파트,101.91,12,1993,2017,11,491137676.26715136,37.3617,126.9262
701,경기도,군포시,산본동 ,1146-11,주공7단지우륵아파트,경기도 군포시 산본동 1146-11 주공7단지우륵아파트,84.9,22,1994,2017,11,389341940.37805796,37.3596,126.9255
702,경기도,군포시,산본동 ,1146-11,주공7단지우륵아파트,경기도 군포시 산본동 1146-11 주공7단지우륵아파트,58.71,1,1994,2017,11,280462311.8792802,37.3596,126.9255
703,경기도,군포시,산본동 ,1148,한마음유치원,경기도 군포시 산본동 1148 한마음유치원,94.43,10,1993,2017,11,438587852.3545852,37.3623,126.9211
704,경기도,군포시,산본동 ,1148-4,주공9단지금강아파트,경기도 군포시 산본동 1148-4 주공9단지금강아파트,58.71,14,1994,2017,11,289027189.77934706,37.3602,126.9204
705,경기도,군포시,산본동 ,1151-9,설악아파트,경기도 군포시 산본동 1151-9 설악아파트,49.89,25,1996,2017,11,235634212.81277955,37.3581,126.9194
706,경기도,군포시,산본동 ,1151-9,설악아파트,경기도 군포시 산본동 1151-9 설악아파트,49.89,13,1996,2017,11,241987341.18597543,37.3581,126.9194
707,경기도,군포시,산본동 ,1152-7,계룡아파트,경기도 군포시 산본동 1152-7 계룡아파트,103.16,18,1993,2017,11,421955561.23026896,37.356,126.9226
708,경기도,군포시,산본동 ,1156-1,주공4단지,경기도 군포시 산본동 1156-1 주공4단지,41.85,3,1992,2017,11,204968081.60323107,37.3496,126.9274
709,경기도,군포시,산본동 ,1156-15,한라4단지주공아파트,경기도 군포시 산본동 1156-15 한라4단지주공아파트,39.97,4,1997,2017,11,183648789.69345987,37.3449,126.9259
710,경기도,군포시,산본동 ,1156-15,한라4단지주공아파트,경기도 군포시 산본동 1156-15 한라4단지주공아파트,59.99,14,1997,2017,11,260779725.40848672,37.3449,126.9259
711,경기도,김포시,감정동 ,550-1,신한아파트,경기도 김포시 감정동 550-1 신한아파트,44.26,5,1992,2017,11,97215986.24350214,37.6225,126.7006
712,경기도,김포시,감정동 ,550-1,신한아파트,경기도 김포시 감정동 550-1 신한아파트,44.26,1,1992,2017,11,94379533.64029026,37.6225,126.7006
713,경기도,김포시,감정동 ,672,북변건영아파트,경기도 김포시 감정동 672 북변건영아파트,84.97,8,1995,2017,11,200705908.6525935,37.6258,126.7024
714,경기도,김포시,감정동 ,674,신화아파트,경기도 김포시 감정동 674 신화아파트,84.75,12,1995,2017,11,202377926.5020293,37.6248,126.7008
715,경기도,김포시,감정동 ,676,한국아파트,경기도 김포시 감정동 676 한국아파트,77.0,5,1995,2017,11,195068374.17605054,37.626,126.6999
716,경기도,김포시,감정동 ,685,신안실크밸리1차아파트,경기도 김포시 감정동 685 신안실크밸리1차아파트,84.89,10,2001,2017,11,230859689.15367472,37.6205,126.6992
717,경기도,김포시,감정동 ,685,신안실크밸리1차아파트,경기도 김포시 감정동 685 신안실크밸리1차아파트,84.89,13,2001,2017,11,230026231.7037009,37.6205,126.6992
718,경기도,김포시,감정동 ,685,신안실크밸리1차아파트,경기도 김포시 감정동 685 신안실크밸리1차아파트,128.49,12,2001,2017,11,280352948.38182104,37.6205,126.6992
719,경기도,김포시,감정동 ,685,신안실크밸리1차아파트,경기도 김포시 감정동 685 신안실크밸리1차아파트,84.89,4,2001,2017,11,226551633.39721072,37.6205,126.6992
720,경기도,김포시,감정동 ,685,신안실크밸리1차아파트,경기도 김포시 감정동 685 신안실크밸리1차아파트,128.49,7,2001,2017,11,277960160.7869657,37.6205,126.6992
721,경기도,김포시,감정동 ,696,중봉마을신안실크밸리,경기도 김포시 감정동 696 중봉마을신안실크밸리,84.8,8,2012,2017,11,300560759.5736476,37.6217,126.6958
722,경기도,김포시,구래동 ,6874-17,호수마을e편한세상아파트,경기도 김포시 구래동 6874-17 호수마을e편한세상아파트,84.72,19,2013,2017,11,332179305.27566683,37.6499,126.6291
723,경기도,김포시,구래동 ,6874-17,호수마을e편한세상아파트,경기도 김포시 구래동 6874-17 호수마을e편한세상아파트,84.64,15,2013,2017,11,332582846.52119076,37.6499,126.6291
724,경기도,김포시,구래동 ,6874-17,호수마을e편한세상아파트,경기도 김포시 구래동 6874-17 호수마을e편한세상아파트,84.64,13,2013,2017,11,332775286.0363172,37.6499,126.6291
725,경기도,김포시,구래동 ,6874-17,호수마을e편한세상아파트,경기도 김포시 구래동 6874-17 호수마을e편한세상아파트,84.72,8,2013,2017,11,332343357.81178343,37.6499,126.6291
726,경기도,김포시,구래동 ,6888-4,구래역화성파크드림,경기도 김포시 구래동 6888-4 구래역화성파크드림,84.8,25,2015,2017,11,334757286.1973754,37.6416,126.6291
727,경기도,김포시,구래동 ,6888-4,구래역화성파크드림,경기도 김포시 구래동 6888-4 구래역화성파크드림,84.78,22,2015,2017,11,334545936.6094314,37.6416,126.6291
728,경기도,김포시,구래동 ,6888-4,구래역화성파크드림,경기도 김포시 구래동 6888-4 구래역화성파크드림,84.8,22,2015,2017,11,334589647.0167614,37.6416,126.6291
729,경기도,김포시,마산동 ,636-1,한강힐스테이트,경기도 김포시 마산동 636-1 한강힐스테이트,84.92,26,2013,2017,11,309677864.0874678,37.6393,126.6334
730,경기도,김포시,마산동 ,639-8,은여울마을경남아너스빌,경기도 김포시 마산동 639-8 은여울마을경남아너스빌,74.65,7,2013,2017,11,277942810.758706,37.6382,126.6378
731,경기도,김포시,북변동 ,690,산호아파트,경기도 김포시 북변동 690 산호아파트,59.94,8,1995,2017,11,184105226.65539253,37.6287,126.7048
732,경기도,김포시,북변동 ,690,산호아파트,경기도 김포시 북변동 690 산호아파트,59.94,1,1995,2017,11,172469524.9720503,37.6287,126.7048
733,경기도,김포시,북변동 ,815,풍년마을청구한라아파트,경기도 김포시 북변동 815 풍년마을청구한라아파트,59.99,15,2000,2017,11,254019031.7495991,37.6218,126.7191
734,경기도,김포시,북변동 ,902,동변마을파라곤아파트,경기도 김포시 북변동 902 동변마을파라곤아파트,120.02,9,2006,2017,11,286937094.5682739,37.6231,126.7093
735,경기도,김포시,사우동 ,1224,농장마을신안아파트,경기도 김포시 사우동 1224 농장마을신안아파트,84.44,2,1998,2017,11,186058227.48350227,37.6192,126.7106
736,경기도,김포시,사우동 ,1224,농장마을신안아파트,경기도 김포시 사우동 1224 농장마을신안아파트,168.33,2,1998,2017,11,269857128.975289,37.6192,126.7106
737,경기도,김포시,사우동 ,238-5,김포아파트,경기도 김포시 사우동 238-5 김포아파트,45.18,1,1988,2017,11,107859813.05497444,37.6168,126.7137
738,경기도,김포시,사우동 ,316,경신아파트,경기도 김포시 사우동 316 경신아파트,59.95,7,1997,2017,11,137647974.51515663,37.6169,126.7213
739,경기도,김포시,사우동 ,316,경신아파트,경기도 김포시 사우동 316 경신아파트,59.95,13,1997,2017,11,135285746.29780757,37.6169,126.7213
740,경기도,김포시,사우동 ,316,경신아파트,경기도 김포시 사우동 316 경신아파트,84.85,7,1997,2017,11,181124039.82484066,37.6169,126.7213
741,경기도,김포시,사우동 ,316,경신아파트,경기도 김포시 사우동 316 경신아파트,84.85,6,1997,2017,11,180666757.23127854,37.6169,126.7213
742,경기도,김포시,사우동 ,857,풍년마을진흥아파트,경기도 김포시 사우동 857 풍년마을진흥아파트,59.94,10,1998,2017,11,223178729.58409178,37.6238,126.7252
743,경기도,김포시,사우동 ,857,풍년마을진흥아파트,경기도 김포시 사우동 857 풍년마을진흥아파트,59.94,14,1998,2017,11,221666113.2968105,37.6238,126.7252
744,경기도,김포시,운양동 ,1249-1,풍경마을한강한라비발디,경기도 김포시 운양동 1249-1 풍경마을한강한라비발디,106.07,2,2013,2017,11,439525249.59570503,37.6593,126.6811
745,경기도,김포시,운양동 ,1249-1,풍경마을한강한라비발디,경기도 김포시 운양동 1249-1 풍경마을한강한라비발디,106.07,3,2013,2017,11,447227058.35891104,37.6593,126.6811
746,경기도,김포시,운양동 ,1249-1,풍경마을한강한라비발디,경기도 김포시 운양동 1249-1 풍경마을한강한라비발디,126.71,6,2013,2017,11,595743766.8177886,37.6593,126.6811
747,경기도,김포시,운양동 ,1250-3,한강신도시e편한세상,경기도 김포시 운양동 1250-3 한강신도시e편한세상,101.91,11,2012,2017,11,447768495.8794608,37.6574,126.6817
748,경기도,김포시,운양동 ,1250-3,한강신도시e편한세상,경기도 김포시 운양동 1250-3 한강신도시e편한세상,101.91,3,2012,2017,11,431209512.269506,37.6574,126.6817
749,경기도,김포시,운양동 ,1300-3,김포한강신도시반도유보라2차,경기도 김포시 운양동 1300-3 김포한강신도시반도유보라2차,59.11,11,2013,2017,11,329410124.1265646,37.6536,126.6799
750,경기도,김포시,운양동 ,1300-3,김포한강신도시반도유보라2차,경기도 김포시 운양동 1300-3 김포한강신도시반도유보라2차,59.11,4,2013,2017,11,323266610.3384868,37.6536,126.6799
751,경기도,김포시,운양동 ,1300-3,김포한강신도시반도유보라2차,경기도 김포시 운양동 1300-3 김포한강신도시반도유보라2차,59.11,10,2013,2017,11,329579921.1258193,37.6536,126.6799
752,경기도,김포시,운양동 ,1300-3,김포한강신도시반도유보라2차,경기도 김포시 운양동 1300-3 김포한강신도시반도유보라2차,59.64,6,2013,2017,11,329684910.66657436,37.6536,126.6799
753,경기도,김포시,운양동 ,1300-3,김포한강신도시반도유보라2차,경기도 김포시 운양동 1300-3 김포한강신도시반도유보라2차,59.11,19,2013,2017,11,326865633.13335407,37.6536,126.6799
754,경기도,김포시,운양동 ,1300-3,김포한강신도시반도유보라2차,경기도 김포시 운양동 1300-3 김포한강신도시반도유보라2차,59.33,21,2013,2017,11,327069386.6164886,37.6536,126.6799
755,경기도,김포시,운양동 ,1300-3,김포한강신도시반도유보라2차,경기도 김포시 운양동 1300-3 김포한강신도시반도유보라2차,59.33,16,2013,2017,11,328633936.34970367,37.6536,126.6799
756,경기도,김포시,운양동 ,1300-3,김포한강신도시반도유보라2차,경기도 김포시 운양동 1300-3 김포한강신도시반도유보라2차,59.11,3,2013,2017,11,318852865.2081951,37.6536,126.6799
757,경기도,김포시,운양동 ,1300-3,김포한강신도시반도유보라2차,경기도 김포시 운양동 1300-3 김포한강신도시반도유보라2차,59.33,25,2013,2017,11,325951009.6268071,37.6536,126.6799
758,경기도,김포시,운양동 ,1301-1,한강신도시롯데캐슬,경기도 김포시 운양동 1301-1 한강신도시롯데캐슬,84.76,19,2014,2017,11,422472329.6350074,37.6559,126.679
759,경기도,김포시,운양동 ,1301-1,한강신도시롯데캐슬,경기도 김포시 운양동 1301-1 한강신도시롯데캐슬,84.98,2,2014,2017,11,399787386.383214,37.6559,126.679
760,경기도,김포시,운양동 ,1301-1,한강신도시롯데캐슬,경기도 김포시 운양동 1301-1 한강신도시롯데캐슬,99.93,8,2014,2017,11,479738649.38107014,37.6559,126.679
761,경기도,김포시,운양동 ,1301-1,한강신도시롯데캐슬,경기도 김포시 운양동 1301-1 한강신도시롯데캐슬,122.85,21,2014,2017,11,530278523.5492387,37.6559,126.679
762,경기도,김포시,운양동 ,1304-5,풍경마을래미안한강2차,경기도 김포시 운양동 1304-5 풍경마을래미안한강2차,84.98,8,2014,2017,11,396891273.01055765,37.6525,126.6749
763,경기도,김포시,운양동 ,1304-5,풍경마을래미안한강2차,경기도 김포시 운양동 1304-5 풍경마을래미안한강2차,84.98,19,2014,2017,11,397851764.7430754,37.6525,126.6749
764,경기도,김포시,운양동 ,1304-5,풍경마을래미안한강2차,경기도 김포시 운양동 1304-5 풍경마을래미안한강2차,84.98,6,2014,2017,11,394408061.1507721,37.6525,126.6749
765,경기도,김포시,운양동 ,1304-5,풍경마을래미안한강2차,경기도 김포시 운양동 1304-5 풍경마을래미안한강2차,84.98,9,2014,2017,11,397464990.331584,37.6525,126.6749
766,경기도,김포시,운양동 ,1304-5,풍경마을래미안한강2차,경기도 김포시 운양동 1304-5 풍경마을래미안한강2차,84.98,5,2014,2017,11,392047407.55783653,37.6525,126.6749
767,경기도,김포시,운양동 ,1304-5,풍경마을래미안한강2차,경기도 김포시 운양동 1304-5 풍경마을래미안한강2차,77.98,16,2014,2017,11,377538293.33713245,37.6525,126.6749
768,경기도,김포시,운양동 ,1304-5,풍경마을래미안한강2차,경기도 김포시 운양동 1304-5 풍경마을래미안한강2차,84.98,15,2014,2017,11,397952773.98322964,37.6525,126.6749
769,경기도,김포시,운양동 ,1304-5,풍경마을래미안한강2차,경기도 김포시 운양동 1304-5 풍경마을래미안한강2차,77.98,3,2014,2017,11,364359561.7875595,37.6525,126.6749
770,경기도,김포시,운양동 ,1304-5,풍경마을래미안한강2차,경기도 김포시 운양동 1304-5 풍경마을래미안한강2차,84.97,10,2014,2017,11,397762536.0263109,37.6525,126.6749
771,경기도,김포시,운양동 ,1306-2,한강신도시운양푸르지오,경기도 김포시 운양동 1306-2 한강신도시운양푸르지오,67.77,4,2016,2017,11,332784704.6230868,37.6523,126.6814
772,경기도,김포시,운양동 ,1325-7,모담마을한강화성파크드림,경기도 김포시 운양동 1325-7 모담마을한강화성파크드림,85.0,8,2012,2017,11,314826871.3397254,37.6452,126.6925
773,경기도,김포시,운양동 ,1436,전원마을월드1단지아파트,경기도 김포시 운양동 1436 전원마을월드1단지아파트,59.53,6,1999,2017,11,154407052.06447017,37.6468,126.6829
774,경기도,김포시,운양동 ,1436,전원마을월드1단지아파트,경기도 김포시 운양동 1436 전원마을월드1단지아파트,59.53,1,1999,2017,11,146020617.01807654,37.6468,126.6829
775,경기도,김포시,운양동 ,1436,전원마을월드1단지아파트,경기도 김포시 운양동 1436 전원마을월드1단지아파트,84.25,14,1999,2017,11,204740460.89634764,37.6468,126.6829
776,경기도,김포시,운양동 ,1439,전원마을월드3단지아파트,경기도 김포시 운양동 1439 전원마을월드3단지아파트,164.97,10,2000,2017,11,264548516.04289734,37.6457,126.6873
777,경기도,김포시,운양동 ,999-2,성창아파트,경기도 김포시 운양동 999-2 성창아파트,59.49,6,1994,2017,11,136259651.49755132,37.6556,126.6744
778,경기도,김포시,장기동 ,1342,청송마을현대아파트,경기도 김포시 장기동 1342 청송마을현대아파트,114.19,14,2001,2017,11,317007405.39558446,37.6473,126.6683
779,경기도,김포시,장기동 ,1342,청송마을현대아파트,경기도 김포시 장기동 1342 청송마을현대아파트,84.28,16,2001,2017,11,278415139.76333034,37.6473,126.6683
780,경기도,김포시,장기동 ,1342,청송마을현대아파트,경기도 김포시 장기동 1342 청송마을현대아파트,114.19,8,2001,2017,11,315985634.52964175,37.6473,126.6683
781,경기도,김포시,장기동 ,1624,고창마을신영지웰,경기도 김포시 장기동 1624 고창마을신영지웰,84.97,12,2008,2017,11,336303421.5728661,37.6428,126.667
782,경기도,김포시,장기동 ,1626,고창마을이지더원,경기도 김포시 장기동 1626 고창마을이지더원,84.44,14,2008,2017,11,311523921.6741613,37.6435,126.6658
783,경기도,김포시,장기동 ,1626,고창마을이지더원,경기도 김포시 장기동 1626 고창마을이지더원,84.44,7,2008,2017,11,309870230.70331585,37.6435,126.6658
784,경기도,김포시,장기동 ,1629,고창마을자연앤어울림,경기도 김포시 장기동 1629 고창마을자연앤어울림,84.85,12,2009,2017,11,296231927.52283895,37.6446,126.6647
785,경기도,김포시,장기동 ,1629,고창마을자연앤어울림,경기도 김포시 장기동 1629 고창마을자연앤어울림,84.85,15,2009,2017,11,296146212.5512935,37.6446,126.6647
786,경기도,김포시,장기동 ,1635,고창마을이니스더원,경기도 김포시 장기동 1635 고창마을이니스더원,112.01,6,2008,2017,11,344894076.657776,37.6421,126.6617
787,경기도,김포시,장기동 ,1636,고창마을제일풍경채아파트,경기도 김포시 장기동 1636 고창마을제일풍경채아파트,84.97,4,2008,2017,11,303224178.44964373,37.6429,126.6634
788,경기도,김포시,장기동 ,1636,고창마을제일풍경채아파트,경기도 김포시 장기동 1636 고창마을제일풍경채아파트,84.97,16,2008,2017,11,311385631.7430321,37.6429,126.6634
789,경기도,김포시,장기동 ,1642,고창마을반도유보라,경기도 김포시 장기동 1642 고창마을반도유보라,101.87,6,2008,2017,11,358527969.43190956,37.6406,126.6644
790,경기도,김포시,장기동 ,1642,고창마을반도유보라,경기도 김포시 장기동 1642 고창마을반도유보라,125.23,8,2008,2017,11,408541773.24741554,37.6406,126.6644
791,경기도,김포시,장기동 ,1655,초당마을우미린아파트,경기도 김포시 장기동 1655 초당마을우미린아파트,98.52,12,2008,2017,11,359337617.9775572,37.6395,126.6667
792,경기도,김포시,장기동 ,1655,초당마을우미린아파트,경기도 김포시 장기동 1655 초당마을우미린아파트,123.8,9,2008,2017,11,401308502.726357,37.6395,126.6667
793,경기도,김포시,장기동 ,1655,초당마을우미린아파트,경기도 김포시 장기동 1655 초당마을우미린아파트,98.9,3,2008,2017,11,346042480.8602314,37.6395,126.6667
794,경기도,김포시,장기동 ,1866-1,청송마을중흥에스-클래스,경기도 김포시 장기동 1866-1 청송마을중흥에스-클래스,107.58,2,2012,2017,11,370539116.97887945,37.6511,126.6686
795,경기도,김포시,장기동 ,1866-1,청송마을중흥에스-클래스,경기도 김포시 장기동 1866-1 청송마을중흥에스-클래스,100.46,3,2012,2017,11,369826949.3483114,37.6511,126.6686
796,경기도,김포시,장기동 ,1866-1,청송마을중흥에스-클래스,경기도 김포시 장기동 1866-1 청송마을중흥에스-클래스,107.59,15,2012,2017,11,391830867.54127026,37.6511,126.6686
797,경기도,김포시,장기동 ,1866-1,청송마을중흥에스-클래스,경기도 김포시 장기동 1866-1 청송마을중흥에스-클래스,107.59,1,2012,2017,11,362094056.33279467,37.6511,126.6686
798,경기도,김포시,장기동 ,1866-1,청송마을중흥에스-클래스,경기도 김포시 장기동 1866-1 청송마을중흥에스-클래스,107.59,26,2012,2017,11,393057587.4385133,37.6511,126.6686
799,경기도,김포시,장기동 ,1866-1,청송마을중흥에스-클래스,경기도 김포시 장기동 1866-1 청송마을중흥에스-클래스,107.59,14,2012,2017,11,391620713.501492,37.6511,126.6686
800,경기도,김포시,장기동 ,1866-1,청송마을중흥에스-클래스,경기도 김포시 장기동 1866-1 청송마을중흥에스-클래스,107.59,20,2012,2017,11,392703530.22316885,37.6511,126.6686
801,경기도,김포시,장기동 ,1866-1,청송마을중흥에스-클래스,경기도 김포시 장기동 1866-1 청송마을중흥에스-클래스,100.46,19,2012,2017,11,384072926.33369446,37.6511,126.6686
802,경기도,김포시,장기동 ,1866-1,청송마을중흥에스-클래스,경기도 김포시 장기동 1866-1 청송마을중흥에스-클래스,107.59,11,2012,2017,11,390714108.9155693,37.6511,126.6686
803,경기도,김포시,장기동 ,1866-1,청송마을중흥에스-클래스,경기도 김포시 장기동 1866-1 청송마을중흥에스-클래스,112.47,19,2012,2017,11,402044056.4454365,37.6511,126.6686
804,경기도,김포시,장기동 ,1866-1,청송마을중흥에스-클래스,경기도 김포시 장기동 1866-1 청송마을중흥에스-클래스,107.59,25,2012,2017,11,392980372.52282953,37.6511,126.6686
805,경기도,김포시,장기동 ,1866-1,청송마을중흥에스-클래스,경기도 김포시 장기동 1866-1 청송마을중흥에스-클래스,107.59,3,2012,2017,11,376821430.9930353,37.6511,126.6686
806,경기도,김포시,장기동 ,1866-1,청송마을중흥에스-클래스,경기도 김포시 장기동 1866-1 청송마을중흥에스-클래스,107.22,16,2012,2017,11,391369735.8658085,37.6511,126.6686
807,경기도,김포시,장기동 ,1868-2,한강현대성우오스타,경기도 김포시 장기동 1868-2 한강현대성우오스타,122.61,3,2012,2017,11,391569654.84689903,37.6502,126.665
808,경기도,김포시,장기동 ,1885-10,고창마을한양수자인리버팰리스,경기도 김포시 장기동 1885-10 고창마을한양수자인리버팰리스,84.87,3,2012,2017,11,324535349.3798009,37.6436,126.6599
809,경기도,김포시,장기동 ,1885-10,고창마을한양수자인리버팰리스,경기도 김포시 장기동 1885-10 고창마을한양수자인리버팰리스,71.55,1,2012,2017,11,293136288.82519543,37.6436,126.6599
810,경기도,김포시,장기동 ,1885-10,고창마을한양수자인리버팰리스,경기도 김포시 장기동 1885-10 고창마을한양수자인리버팰리스,84.88,2,2012,2017,11,318698683.23437417,37.6436,126.6599
811,경기도,김포시,장기동 ,1885-10,고창마을한양수자인리버팰리스,경기도 김포시 장기동 1885-10 고창마을한양수자인리버팰리스,84.87,7,2012,2017,11,334771720.2544991,37.6436,126.6599
812,경기도,김포시,장기동 ,1885-10,고창마을한양수자인리버팰리스,경기도 김포시 장기동 1885-10 고창마을한양수자인리버팰리스,84.87,2,2012,2017,11,318678256.85656583,37.6436,126.6599
813,경기도,김포시,장기동 ,1885-10,고창마을한양수자인리버팰리스,경기도 김포시 장기동 1885-10 고창마을한양수자인리버팰리스,84.91,12,2012,2017,11,336471002.43405735,37.6436,126.6599
814,경기도,김포시,장기동 ,1885-10,고창마을한양수자인리버팰리스,경기도 김포시 장기동 1885-10 고창마을한양수자인리버팰리스,84.93,5,2012,2017,11,331712268.7586545,37.6436,126.6599
815,경기도,김포시,장기동 ,1885-6,한강호반베르디움,경기도 김포시 장기동 1885-6 한강호반베르디움,59.99,11,2012,2017,11,270186692.03309023,37.6462,126.6597
816,경기도,김포시,장기동 ,1885-6,한강호반베르디움,경기도 김포시 장기동 1885-6 한강호반베르디움,59.94,17,2012,2017,11,268081426.48218155,37.6462,126.6597
817,경기도,김포시,장기동 ,1885-6,한강호반베르디움,경기도 김포시 장기동 1885-6 한강호반베르디움,59.94,6,2012,2017,11,269044258.281536,37.6462,126.6597
818,경기도,김포시,장기동 ,1885-6,한강호반베르디움,경기도 김포시 장기동 1885-6 한강호반베르디움,59.97,6,2012,2017,11,269123820.5539843,37.6462,126.6597
819,경기도,김포시,장기동 ,1885-6,한강호반베르디움,경기도 김포시 장기동 1885-6 한강호반베르디움,59.94,13,2012,2017,11,269470318.1141584,37.6462,126.6597
820,경기도,김포시,장기동 ,1885-6,한강호반베르디움,경기도 김포시 장기동 1885-6 한강호반베르디움,59.99,15,2012,2017,11,268926686.3253287,37.6462,126.6597
821,경기도,김포시,장기동 ,1885-6,한강호반베르디움,경기도 김포시 장기동 1885-6 한강호반베르디움,59.94,8,2012,2017,11,270218024.14294755,37.6462,126.6597
822,경기도,김포시,장기동 ,1885-6,한강호반베르디움,경기도 김포시 장기동 1885-6 한강호반베르디움,59.94,9,2012,2017,11,270321861.87510383,37.6462,126.6597
823,경기도,김포시,장기동 ,1886-2,고창마을케이씨씨스위첸,경기도 김포시 장기동 1886-2 고창마을케이씨씨스위첸,59.98,4,2011,2017,11,278078673.1438644,37.6459,126.663
824,경기도,김포시,장기동 ,1886-2,고창마을케이씨씨스위첸,경기도 김포시 장기동 1886-2 고창마을케이씨씨스위첸,59.96,10,2011,2017,11,283191201.59720945,37.6459,126.663
825,경기도,김포시,장기동 ,1886-2,고창마을케이씨씨스위첸,경기도 김포시 장기동 1886-2 고창마을케이씨씨스위첸,59.98,7,2011,2017,11,282934384.7293259,37.6459,126.663
826,경기도,김포시,장기동 ,1886-2,고창마을케이씨씨스위첸,경기도 김포시 장기동 1886-2 고창마을케이씨씨스위첸,59.98,9,2011,2017,11,283387439.1647407,37.6459,126.663
827,경기도,김포시,장기동 ,1886-2,고창마을케이씨씨스위첸,경기도 김포시 장기동 1886-2 고창마을케이씨씨스위첸,59.96,12,2011,2017,11,282582616.5513233,37.6459,126.663
828,경기도,김포시,장기동 ,1886-2,고창마을케이씨씨스위첸,경기도 김포시 장기동 1886-2 고창마을케이씨씨스위첸,59.96,11,2011,2017,11,282927065.6417743,37.6459,126.663
829,경기도,김포시,장기동 ,1886-2,고창마을케이씨씨스위첸,경기도 김포시 장기동 1886-2 고창마을케이씨씨스위첸,59.96,7,2011,2017,11,282872813.9987873,37.6459,126.663
830,경기도,김포시,장기동 ,2004-4,수정마을쌍용예가아파트,경기도 김포시 장기동 2004-4 수정마을쌍용예가아파트,84.75,12,2011,2017,11,331644487.009596,37.6422,126.6807
831,경기도,김포시,장기동 ,2004-4,수정마을쌍용예가아파트,경기도 김포시 장기동 2004-4 수정마을쌍용예가아파트,84.78,20,2011,2017,11,330720663.61411464,37.6422,126.6807
832,경기도,김포시,장기동 ,2004-4,수정마을쌍용예가아파트,경기도 김포시 장기동 2004-4 수정마을쌍용예가아파트,84.75,4,2011,2017,11,323898880.35992587,37.6422,126.6807
833,경기도,김포시,장기동 ,2004-4,수정마을쌍용예가아파트,경기도 김포시 장기동 2004-4 수정마을쌍용예가아파트,84.75,15,2011,2017,11,331324313.37885296,37.6422,126.6807
834,경기도,김포시,장기동 ,2004-4,수정마을쌍용예가아파트,경기도 김포시 장기동 2004-4 수정마을쌍용예가아파트,84.75,9,2011,2017,11,331346154.0026623,37.6422,126.6807
835,경기도,김포시,장기동 ,2004-4,수정마을쌍용예가아파트,경기도 김포시 장기동 2004-4 수정마을쌍용예가아파트,84.56,3,2011,2017,11,319218673.787218,37.6422,126.6807
836,경기도,김포시,장기동 ,2004-4,수정마을쌍용예가아파트,경기도 김포시 장기동 2004-4 수정마을쌍용예가아파트,84.78,7,2011,2017,11,330165564.7687923,37.6422,126.6807
837,경기도,김포시,장기동 ,2004-4,수정마을쌍용예가아파트,경기도 김포시 장기동 2004-4 수정마을쌍용예가아파트,84.75,6,2011,2017,11,328826711.2015108,37.6422,126.6807
838,경기도,김포시,장기동 ,2004-4,수정마을쌍용예가아파트,경기도 김포시 장기동 2004-4 수정마을쌍용예가아파트,84.75,8,2011,2017,11,330890169.01625574,37.6422,126.6807
839,경기도,김포시,장기동 ,2004-4,수정마을쌍용예가아파트,경기도 김포시 장기동 2004-4 수정마을쌍용예가아파트,84.56,4,2011,2017,11,323501710.5113343,37.6422,126.6807
840,경기도,김포시,장기동 ,2004-4,수정마을쌍용예가아파트,경기도 김포시 장기동 2004-4 수정마을쌍용예가아파트,84.65,9,2011,2017,11,331130809.5342618,37.6422,126.6807
841,경기도,김포시,장기동 ,2004-4,수정마을쌍용예가아파트,경기도 김포시 장기동 2004-4 수정마을쌍용예가아파트,84.56,5,2011,2017,11,326452746.20033896,37.6422,126.6807
842,경기도,김포시,장기동 ,2058-1,한강신도시초당마을중흥에스-클래스리버티,경기도 김포시 장기동 2058-1 한강신도시초당마을중흥에스-클래스리버티,85.0,21,2012,2017,11,,37.6384,126.6694
843,경기도,김포시,장기동 ,2058-1,한강신도시초당마을중흥에스-클래스리버티,경기도 김포시 장기동 2058-1 한강신도시초당마을중흥에스-클래스리버티,84.99,3,2012,2017,11,,37.6384,126.6694
844,경기도,김포시,장기동 ,2058-1,한강신도시초당마을중흥에스-클래스리버티,경기도 김포시 장기동 2058-1 한강신도시초당마을중흥에스-클래스리버티,85.0,7,2012,2017,11,,37.6384,126.6694
845,경기도,김포시,장기동 ,2058-1,한강신도시초당마을중흥에스-클래스리버티,경기도 김포시 장기동 2058-1 한강신도시초당마을중흥에스-클래스리버티,84.99,11,2012,2017,11,,37.6384,126.6694
846,경기도,김포시,장기동 ,2071-2,초당마을 래미안 한강,경기도 김포시 장기동 2071-2 초당마을 래미안 한강,101.16,6,2012,2017,11,426795519.2816677,37.6388,126.676
847,경기도,김포시,풍무동 ,1,김포길훈아파트,경기도 김포시 풍무동 1 김포길훈아파트,84.8,2,1993,2017,11,182752784.66261685,37.6132,126.7196
848,경기도,김포시,풍무동 ,1,김포길훈아파트,경기도 김포시 풍무동 1 김포길훈아파트,136.17,11,1993,2017,11,214503263.4786886,37.6132,126.7196
849,경기도,김포시,풍무동 ,147,양도마을서해아파트,경기도 김포시 풍무동 147 양도마을서해아파트,108.6,13,2000,2017,11,282860071.20492256,37.6057,126.7245
850,경기도,김포시,풍무동 ,147,양도마을서해아파트,경기도 김포시 풍무동 147 양도마을서해아파트,167.67,9,2000,2017,11,352023341.77833796,37.6057,126.7245
851,경기도,김포시,풍무동 ,147,양도마을서해아파트,경기도 김포시 풍무동 147 양도마을서해아파트,108.6,3,2000,2017,11,271937309.88449943,37.6057,126.7245
852,경기도,김포시,풍무동 ,583-6,유현마을신동아아파트,경기도 김포시 풍무동 583-6 유현마을신동아아파트,84.91,1,1999,2017,11,237075854.3626083,37.5975,126.7233
853,경기도,김포시,풍무동 ,740,장릉마을삼성아파트,경기도 김포시 풍무동 740 장릉마을삼성아파트,27.45,14,2002,2017,11,93184714.4672761,37.6057,126.71
854,경기도,김포시,풍무동 ,740,장릉마을삼성아파트,경기도 김포시 풍무동 740 장릉마을삼성아파트,109.11,1,2002,2017,11,217691163.5030781,37.6057,126.71
855,경기도,김포시,풍무동 ,740,장릉마을삼성아파트,경기도 김포시 풍무동 740 장릉마을삼성아파트,27.45,7,2002,2017,11,96000434.51571035,37.6057,126.71
856,경기도,김포시,풍무동 ,743,당곡마을현대아파트,경기도 김포시 풍무동 743 당곡마을현대아파트,115.22,7,2001,2017,11,282244538.85780466,37.5989,126.7194
857,경기도,김포시,풍무동 ,748,당곡마을월드메르디앙아파트,경기도 김포시 풍무동 748 당곡마을월드메르디앙아파트,80.0,5,2002,2017,11,245339497.86446106,37.6021,126.7178
858,경기도,김포시,풍무동 ,748,당곡마을월드메르디앙아파트,경기도 김포시 풍무동 748 당곡마을월드메르디앙아파트,80.17,1,2002,2017,11,229813292.9114877,37.6021,126.7178
859,경기도,김포시,풍무동 ,748,당곡마을월드메르디앙아파트,경기도 김포시 풍무동 748 당곡마을월드메르디앙아파트,80.0,9,2002,2017,11,248105544.34459198,37.6021,126.7178
860,경기도,김포시,풍무동 ,748,당곡마을월드메르디앙아파트,경기도 김포시 풍무동 748 당곡마을월드메르디앙아파트,94.46,12,2002,2017,11,276315902.9827455,37.6021,126.7178
861,경기도,김포시,풍무동 ,748,당곡마을월드메르디앙아파트,경기도 김포시 풍무동 748 당곡마을월드메르디앙아파트,116.58,16,2002,2017,11,298301581.7762481,37.6021,126.7178
862,경기도,김포시,풍무동 ,757,양도마을대림아파트,경기도 김포시 풍무동 757 양도마을대림아파트,79.51,8,2003,2017,11,268557305.6816641,37.6045,126.7204
863,경기도,김포시,풍무동 ,759,유현마을현대프라임빌아파트,경기도 김포시 풍무동 759 유현마을현대프라임빌아파트,134.52,8,2003,2017,11,349657060.36110973,37.5988,126.7285
864,경기도,김포시,풍무동 ,759,유현마을현대프라임빌아파트,경기도 김포시 풍무동 759 유현마을현대프라임빌아파트,118.63,16,2003,2017,11,334276850.7929927,37.5988,126.7285
